{
  "trashCan": [
    {
      "Address": "종로구 사직로 경복궁역 4번출구 ",
      "Latitude": 37.583485,
      "Longitude": 127.001468,
      "canType": "재활용",
      "설치위치": "지하철역 입구"
    },
    {
      "Address": "종로구 자하문로 자하문로 28 ",
      "Latitude": 37.5785599,
      "Longitude": 126.9719683,
      "canType": "일반쓰레기",
      "설치위치": "도로(가로)변"
    },
    {
      "Address": "종로구 자하문로 자하문로 28 ",
      "Latitude": 37.5785599,
      "Longitude": 126.9719683,
      "canType": "재활용",
      "설치위치": "도로(가로)변"
    },
    {
      "Address": "종로구 자하문로 자하문로 44 ",
      "Latitude": 37.5799725,
      "Longitude": 126.9715532,
      "canType": "일반쓰레기",
      "설치위치": "도로(가로)변"
    },
    {
      "Address": "종로구 자하문로 자하문로 44 ",
      "Latitude": 37.5799725,
      "Longitude": 126.9715532,
      "canType": "재활용",
      "설치위치": "도로(가로)변"
    },
    {
      "Address": "종로구 자하문로 자하문로 68(효자동 정류소) ",
      "Latitude": 37.5830761,
      "Longitude": 126.9707442,
      "canType": "일반쓰레기",
      "설치위치": "정류장(버스, 택시 등)"
    },
    {
      "Address": "종로구 자하문로 자하문로 68(효자동 정류소) ",
      "Latitude": 37.5830761,
      "Longitude": 126.9707442,
      "canType": "재활용",
      "설치위치": "정류장(버스, 택시 등)"
    },
    {
      "Address": "종로구 효자로 청와대 분수대(사랑채) ",
      "Latitude": 37.583022,
      "Longitude": 126.973747,
      "canType": "일반쓰레기",
      "설치위치": "광장 등 다중집합장소"
    },
    {
      "Address": "종로구 효자로 청와대 분수대(사랑채) ",
      "Latitude": 37.583022,
      "Longitude": 126.973747,
      "canType": "재활용",
      "설치위치": "광장 등 다중집합장소"
    },
    {
      "Address": "종로구 자하문로 자하문로13-4앞 ",
      "Latitude": 37.5772309,
      "Longitude": 126.9720331,
      "canType": "일반쓰레기",
      "설치위치": "도로(가로)변"
    },
    {
      "Address": "종로구 자하문로 자하문로13-4앞 ",
      "Latitude": 37.5772309,
      "Longitude": 126.9720331,
      "canType": "재활용",
      "설치위치": "도로(가로)변"
    },
    {
      "Address": "종로구 율곡로 삼청로1 맞은편 인도 ",
      "Latitude": 37.5760608,
      "Longitude": 126.9778939,
      "canType": "일반쓰레기",
      "설치위치": "광장, 공원 등 다중집합장소"
    },
    {
      "Address": "종로구 율곡로 삼청로1 맞은편 인도 ",
      "Latitude": 37.5760608,
      "Longitude": 126.9778939,
      "canType": "재활용",
      "설치위치": "광장, 공원 등 다중집합장소"
    },
    {
      "Address": "종로구 자하문로 자하문로1길 26 ",
      "Latitude": 37.5765511,
      "Longitude": 126.9709034,
      "canType": "담배꽁초",
      "설치위치": "상가지역"
    },
    {
      "Address": "종로구 자하문로 자하문로1길 12 ",
      "Latitude": 37.5765774,
      "Longitude": 126.9717474,
      "canType": "담배꽁초",
      "설치위치": "상가지역"
    },
    {
      "Address": "종로구 자하문로 자하문로1길 50-1 ",
      "Latitude": 37.5770095,
      "Longitude": 126.9696695,
      "canType": "담배꽁초",
      "설치위치": "상가지역"
    },
    {
      "Address": "종로구 자하문로 자하문로1길 34 ",
      "Latitude": 37.5766138,
      "Longitude": 126.9705526,
      "canType": "담배꽁초",
      "설치위치": "상가지역"
    },
    {
      "Address": "종로구 자하문로 자하문로1길 49-4 ",
      "Latitude": 37.5767645,
      "Longitude": 126.9695445,
      "canType": "담배꽁초",
      "설치위치": "상가지역"
    },
    {
      "Address": "종로구 자하문로 자하문로103-19 ",
      "Latitude": 37.5851238,
      "Longitude": 126.9699484,
      "canType": "담배꽁초",
      "설치위치": "상가지역"
    },
    {
      "Address": "종로구 자하문로 자하문로1길 33 ",
      "Latitude": 37.5764792,
      "Longitude": 126.9703968,
      "canType": "담배꽁초",
      "설치위치": "상가지역"
    },
    {
      "Address": "종로구 자하문로 자하문로1길 103-4 ",
      "Latitude": 37.5768247,
      "Longitude": 126.9704841,
      "canType": "담배꽁초",
      "설치위치": "상가지역"
    },
    {
      "Address": "종로구 자하문로 자하문로1길 49-4 ",
      "Latitude": 37.5767645,
      "Longitude": 126.9695445,
      "canType": "담배꽁초",
      "설치위치": "상가지역"
    },
    {
      "Address": "종로구 자하문로 자하문로1길 21 ",
      "Latitude": 37.5763746,
      "Longitude": 126.9711905,
      "canType": "담배꽁초",
      "설치위치": "상가지역"
    },
    {
      "Address": "종로구 자하문로 자하문로1길 3-2 ",
      "Latitude": 37.5764578,
      "Longitude": 126.9721561,
      "canType": "담배꽁초",
      "설치위치": "상가지역"
    },
    {
      "Address": "종로구 자하문로 자하문로1길 5 ",
      "Latitude": 37.5764578,
      "Longitude": 126.9721561,
      "canType": "담배꽁초",
      "설치위치": "상가지역"
    },
    {
      "Address": "종로구 자하문로 자하문로1길 3 ",
      "Latitude": 37.5764578,
      "Longitude": 126.9721561,
      "canType": "담배꽁초",
      "설치위치": "상가지역"
    },
    {
      "Address": "종로구 자하문로 자하문로 13-2 ",
      "Latitude": 37.577375,
      "Longitude": 126.9719682,
      "canType": "일반쓰레기",
      "설치위치": "도로(가로)변"
    },
    {
      "Address": "종로구 자하문로 자하문로 13-2 ",
      "Latitude": 37.577375,
      "Longitude": 126.9719682,
      "canType": "재활용",
      "설치위치": "도로(가로)변"
    },
    {
      "Address": "종로구 자하문로 자하문로 82(경복궁 아트홀) ",
      "Latitude": 37.5833382,
      "Longitude": 126.9706364,
      "canType": "일반쓰레기",
      "설치위치": "도로(가로)변"
    },
    {
      "Address": "종로구 자하문로 자하문로 82(경복궁 아트홀) ",
      "Latitude": 37.5833382,
      "Longitude": 126.9706364,
      "canType": "재활용",
      "설치위치": "도로(가로)변"
    },
    {
      "Address": "종로구 필운대로6길 사직동 주민센터 ",
      "Latitude": 37.5805745,
      "Longitude": 126.9693629,
      "canType": "일반쓰레기",
      "설치위치": "도로(가로)변"
    },
    {
      "Address": "종로구 필운대로6길 사직동 주민센터 ",
      "Latitude": 37.5805745,
      "Longitude": 126.9693629,
      "canType": "재활용",
      "설치위치": "도로(가로)변"
    },
    {
      "Address": "종로구 새문안로 신문로2가 흥국생명 뒷편 ",
      "Latitude": 37.5708649,
      "Longitude": 126.9692283,
      "canType": "담배꽁초",
      "설치위치": "도로(가로)변"
    },
    {
      "Address": "종로구 새문안로 신문로2가 흥국생명 뒷편 ",
      "Latitude": 37.5708649,
      "Longitude": 126.9692283,
      "canType": "일반쓰레기",
      "설치위치": "도로(가로)변"
    },
    {
      "Address": "종로구 새문안로 새문안로 82 에스타워 ",
      "Latitude": 37.5697299,
      "Longitude": 126.9739214,
      "canType": "일반쓰레기",
      "설치위치": "도로(가로)변"
    },
    {
      "Address": "종로구 새문안로 새문안로 82 에스타워 ",
      "Latitude": 37.5697299,
      "Longitude": 126.9739214,
      "canType": "재활용",
      "설치위치": "도로(가로)변"
    },
    {
      "Address": "종로구 세종대로 광화문 버스정류장(01-009) ",
      "Latitude": 37.5696765,
      "Longitude": 126.976177,
      "canType": "일반쓰레기",
      "설치위치": "정류소(버스, 택시 등)"
    },
    {
      "Address": "종로구 세종대로 광화문 버스정류장(01-009) ",
      "Latitude": 37.5696765,
      "Longitude": 126.976177,
      "canType": "일반쓰레기",
      "설치위치": "정류장(버스, 택시 등)"
    },
    {
      "Address": "종로구 청계천로 청계천입구 ",
      "Latitude": 37.5691015,
      "Longitude": 126.9786692,
      "canType": "일반쓰레기",
      "설치위치": "도로(가로)변"
    },
    {
      "Address": "종로구 청계천로 청계천입구 ",
      "Latitude": 37.5691015,
      "Longitude": 126.9786692,
      "canType": "재활용",
      "설치위치": "도로(가로)변"
    },
    {
      "Address": "종로구 종로 종로14 한국무역공사 ",
      "Latitude": 37.569785,
      "Longitude": 126.978848,
      "canType": "일반쓰레기",
      "설치위치": "도로(가로)변"
    },
    {
      "Address": "종로구 종로 종로14 한국무역공사 ",
      "Latitude": 37.569785,
      "Longitude": 126.978848,
      "canType": "재활용",
      "설치위치": "도로(가로)변"
    },
    {
      "Address": "종로구 종로 종로30-1 종로분식 ",
      "Latitude": 37.5699086,
      "Longitude": 126.9806907,
      "canType": "일반쓰레기",
      "설치위치": "도로(가로)변"
    },
    {
      "Address": "종로구 종로 종로30-1 종로분식 ",
      "Latitude": 37.5699086,
      "Longitude": 126.9806907,
      "canType": "재활용",
      "설치위치": "도로(가로)변"
    },
    {
      "Address": "종로구 종로 종로1가 버스정류장 ",
      "Latitude": 37.5702676,
      "Longitude": 126.9801668,
      "canType": "일반쓰레기",
      "설치위치": "정류소(버스, 택시 등)"
    },
    {
      "Address": "종로구 종로 종로1가 버스정류장 ",
      "Latitude": 37.5702676,
      "Longitude": 126.9801668,
      "canType": "재활용",
      "설치위치": "정류소(버스, 택시 등)"
    },
    {
      "Address": "종로구 종로 종로58 대한기독 서회 ",
      "Latitude": 37.5698956,
      "Longitude": 126.9849132,
      "canType": "일반쓰레기",
      "설치위치": "도로(가로)변"
    },
    {
      "Address": "종로구 종로 종로59 대한기독 서회 ",
      "Latitude": 37.5698956,
      "Longitude": 126.9849132,
      "canType": "재활용",
      "설치위치": "도로(가로)변"
    },
    {
      "Address": "종로구 종로 종로80 ",
      "Latitude": 37.5699508,
      "Longitude": 126.9862548,
      "canType": "일반쓰레기",
      "설치위치": "도로(가로)변"
    },
    {
      "Address": "종로구 종로 종로80 ",
      "Latitude": 37.5699508,
      "Longitude": 126.9862548,
      "canType": "재활용",
      "설치위치": "도로(가로)변"
    },
    {
      "Address": "종로구 종로 종로2가 버스정류장(01-013) ",
      "Latitude": 37.5704572,
      "Longitude": 126.9869372,
      "canType": "일반쓰레기",
      "설치위치": "정류소(버스, 택시 등)"
    },
    {
      "Address": "종로구 종로 종로2가 버스정류장(01-013) ",
      "Latitude": 37.5704572,
      "Longitude": 126.9869372,
      "canType": "일반쓰레기",
      "설치위치": "정류소(버스, 택시 등)"
    },
    {
      "Address": "종로구 삼일대로 삼일대로 버스정류장 ",
      "Latitude": 37.57289,
      "Longitude": 126.9872414,
      "canType": "일반쓰레기",
      "설치위치": "정류소(버스, 택시 등)"
    },
    {
      "Address": "종로구 삼일대로 삼일대로 버스정류장 ",
      "Latitude": 37.57289,
      "Longitude": 126.9872414,
      "canType": "일반쓰레기",
      "설치위치": "정류소(버스, 택시 등)"
    },
    {
      "Address": "종로구 종로 종로2가 버스정류장(01-014) ",
      "Latitude": 37.5704572,
      "Longitude": 126.9869372,
      "canType": "일반쓰레기",
      "설치위치": "정류장(버스, 택시 등)"
    },
    {
      "Address": "종로구 종로 종로2가 버스정류장(01-015) ",
      "Latitude": 37.5704572,
      "Longitude": 126.9869372,
      "canType": "일반쓰레기",
      "설치위치": "정류장(버스, 택시 등)"
    },
    {
      "Address": "종로구 종로 종로73 ",
      "Latitude": 37.5704285,
      "Longitude": 126.9857346,
      "canType": "일반쓰레기",
      "설치위치": "도로(가로)변"
    },
    {
      "Address": "종로구 종로 종로74 ",
      "Latitude": 37.5699448,
      "Longitude": 126.9856159,
      "canType": "재활용",
      "설치위치": "도로(가로)변"
    },
    {
      "Address": "종로구 종로 종로51 ",
      "Latitude": 37.5704497,
      "Longitude": 126.9838628,
      "canType": "일반쓰레기",
      "설치위치": "도로(가로)변"
    },
    {
      "Address": "종로구 종로 종로51 ",
      "Latitude": 37.5704497,
      "Longitude": 126.9838628,
      "canType": "재활용",
      "설치위치": "도로(가로)변"
    },
    {
      "Address": "종로구 종로 종각교차로 ",
      "Latitude": 37.570176,
      "Longitude": 126.983197,
      "canType": "일반쓰레기",
      "설치위치": "도로(가로)변"
    },
    {
      "Address": "종로구 인사동길 인사동길51 ",
      "Latitude": 37.5743033,
      "Longitude": 126.9844135,
      "canType": "일반쓰레기",
      "설치위치": "광장 등 다중집합장소"
    },
    {
      "Address": "종로구 인사동길 인사동길51 ",
      "Latitude": 37.5743033,
      "Longitude": 126.9844135,
      "canType": "재활용",
      "설치위치": "광장 등 다중집합장소"
    },
    {
      "Address": "종로구 인사동길 인사동길1 ",
      "Latitude": 37.5743033,
      "Longitude": 126.9844135,
      "canType": "일반쓰레기",
      "설치위치": "도로(가로)변"
    },
    {
      "Address": "종로구 인사동길 인사동길1 ",
      "Latitude": 37.5743033,
      "Longitude": 126.9844135,
      "canType": "재활용",
      "설치위치": "도로(가로)변"
    },
    {
      "Address": "종로구 율곡로 율곡로46 ",
      "Latitude": 37.5760033,
      "Longitude": 126.9847107,
      "canType": "일반쓰레기",
      "설치위치": "도로(가로)변"
    },
    {
      "Address": "종로구 율곡로 율곡로46 ",
      "Latitude": 37.5760033,
      "Longitude": 126.9847107,
      "canType": "재활용",
      "설치위치": "도로(가로)변"
    },
    {
      "Address": "종로구 삼일대로 삼일대로467 ",
      "Latitude": 37.5759852,
      "Longitude": 126.9858221,
      "canType": "일반쓰레기",
      "설치위치": "도로(가로)변"
    },
    {
      "Address": "종로구 삼일대로 삼일대로467 ",
      "Latitude": 37.5759852,
      "Longitude": 126.9858221,
      "canType": "재활용",
      "설치위치": "도로(가로)변"
    },
    {
      "Address": "종로구 종로 종로1가 버스정류장(01-012) ",
      "Latitude": 37.5702676,
      "Longitude": 126.9801668,
      "canType": "일반쓰레기",
      "설치위치": "정류장(버스, 택시 등)"
    },
    {
      "Address": "종로구 종로 종로1가 버스정류장(01-012) ",
      "Latitude": 37.5702676,
      "Longitude": 126.9801668,
      "canType": "재활용",
      "설치위치": "정류장(버스, 택시 등)"
    },
    {
      "Address": "종로구 종로 광화문버스정류장(01-010) ",
      "Latitude": 37.57021,
      "Longitude": 126.978077,
      "canType": "일반쓰레기",
      "설치위치": "정류장(버스, 택시 등)"
    },
    {
      "Address": "종로구 종로 광화문버스정류장(01-010) ",
      "Latitude": 37.57021,
      "Longitude": 126.978077,
      "canType": "재활용",
      "설치위치": "정류장(버스, 택시 등)"
    },
    {
      "Address": "종로구 세종대로 광화문KT앞 ",
      "Latitude": 37.5721381,
      "Longitude": 126.9778448,
      "canType": "일반쓰레기",
      "설치위치": "도로(가로)변"
    },
    {
      "Address": "종로구 세종대로 광화문KT앞 ",
      "Latitude": 37.5721381,
      "Longitude": 126.9778448,
      "canType": "재활용",
      "설치위치": "도로(가로)변"
    },
    {
      "Address": "종로구 종로 종로1길55 열린마당 ",
      "Latitude": 37.5749226999999,
      "Longitude": 126.9780248,
      "canType": "일반쓰레기",
      "설치위치": "도로(가로)변"
    },
    {
      "Address": "종로구 종로 종로1길55 열린마당 ",
      "Latitude": 37.5749226999999,
      "Longitude": 126.9780248,
      "canType": "재활용",
      "설치위치": "도로(가로)변"
    },
    {
      "Address": "종로구 종로 종로5길 이마빌딩 ",
      "Latitude": 37.5738637,
      "Longitude": 126.9789715,
      "canType": "일반쓰레기",
      "설치위치": "도로(가로)변"
    },
    {
      "Address": "종로구 종로 종로6길 이마빌딩 ",
      "Latitude": 37.5719508,
      "Longitude": 127.0076798,
      "canType": "재활용",
      "설치위치": "도로(가로)변"
    },
    {
      "Address": "종로구 세종대로 세종대로142  세종로공원 ",
      "Latitude": 37.5735895,
      "Longitude": 126.9759418,
      "canType": "일반쓰레기",
      "설치위치": "도로(가로)변"
    },
    {
      "Address": "종로구 세종대로 세종대로142  세종로공원 ",
      "Latitude": 37.5735895,
      "Longitude": 126.9759418,
      "canType": "재활용",
      "설치위치": "도로(가로)변"
    },
    {
      "Address": "종로구 세종대로 세종대로175  세종문화회관 ",
      "Latitude": 37.5725254,
      "Longitude": 126.9756429,
      "canType": "일반쓰레기",
      "설치위치": "도로(가로)변"
    },
    {
      "Address": "종로구 세종대로 세종대로176  세종문화회관 ",
      "Latitude": 37.5722099,
      "Longitude": 126.9768146,
      "canType": "재활용",
      "설치위치": "도로(가로)변"
    },
    {
      "Address": "종로구 세종대로 광화문역7번출구 ",
      "Latitude": 37.5696765,
      "Longitude": 126.976177,
      "canType": "일반쓰레기",
      "설치위치": "지하철역 입구"
    },
    {
      "Address": "종로구 세종대로 광화문역7번출구 ",
      "Latitude": 37.5696765,
      "Longitude": 126.976177,
      "canType": "재활용",
      "설치위치": "지하철역 입구"
    },
    {
      "Address": "종로구 세종대로 광화문역8번출구 ",
      "Latitude": 37.5696765,
      "Longitude": 126.976177,
      "canType": "일반쓰레기",
      "설치위치": "지하철역 입구"
    },
    {
      "Address": "종로구 새문안로 신문로2가 103-1 삼원약국 ",
      "Latitude": 37.5727336,
      "Longitude": 126.9702687,
      "canType": "일반쓰레기",
      "설치위치": "도로(가로)변"
    },
    {
      "Address": "종로구 세종대로 신문로2가 103-2 삼원약국 ",
      "Latitude": 37.5708649,
      "Longitude": 126.9692283,
      "canType": "재활용",
      "설치위치": "도로(가로)변"
    },
    {
      "Address": "종로구 새문안로 서울역사박물관 버스정류장(01-008) ",
      "Latitude": 37.5704837,
      "Longitude": 126.9705674,
      "canType": "일반쓰레기",
      "설치위치": "도로(가로)변"
    },
    {
      "Address": "종로구 새문안로 서울역사박물관 버스정류장(01-007) ",
      "Latitude": 37.5704837,
      "Longitude": 126.9705674,
      "canType": "일반쓰레기",
      "설치위치": "도로(가로)변"
    },
    {
      "Address": "종로구 통일로 통일로134 ",
      "Latitude": 37.5724271,
      "Longitude": 126.9613598,
      "canType": "일반쓰레기",
      "설치위치": "도로(가로)변"
    },
    {
      "Address": "종로구 통일로 통일로134 ",
      "Latitude": 37.5724271,
      "Longitude": 126.9613598,
      "canType": "재활용",
      "설치위치": "도로(가로)변"
    },
    {
      "Address": "종로구 사직로 사직동 주민센터 ",
      "Latitude": 37.5761724,
      "Longitude": 126.9688035,
      "canType": "일반쓰레기",
      "설치위치": "도로(가로)변"
    },
    {
      "Address": "종로구 사직로 사직동 주민센터 ",
      "Latitude": 37.5761724,
      "Longitude": 126.9688035,
      "canType": "재활용",
      "설치위치": "도로(가로)변"
    },
    {
      "Address": "종로구 사직로 경복궁역 7번출구 ",
      "Latitude": 37.575838,
      "Longitude": 126.97358,
      "canType": "일반쓰레기",
      "설치위치": "지하철역 입구"
    },
    {
      "Address": "종로구 사직로 경북궁역 7번출구 ",
      "Latitude": 37.575838,
      "Longitude": 126.97358,
      "canType": "재활용",
      "설치위치": "도로(가로)변"
    },
    {
      "Address": "종로구 종로 종로 14(광화문우체국) ",
      "Latitude": 37.5698000999999,
      "Longitude": 126.9780682,
      "canType": "일반쓰레기",
      "설치위치": "도로(가로)변"
    },
    {
      "Address": "종로구 종로 종로 14(광화문우체국) ",
      "Latitude": 37.5698000999999,
      "Longitude": 126.9780682,
      "canType": "재활용",
      "설치위치": "도로(가로)변"
    },
    {
      "Address": "종로구 사직로 사직단 버스정류장(01128) ",
      "Latitude": 37.5755826,
      "Longitude": 126.967691,
      "canType": "일반쓰레기",
      "설치위치": "정류장(버스, 택시 등)"
    },
    {
      "Address": "종로구 종로 종로 34 ",
      "Latitude": 37.5698444,
      "Longitude": 126.9811096,
      "canType": "일반쓰레기",
      "설치위치": "도로(가로)변"
    },
    {
      "Address": "종로구 종로 종로 34 ",
      "Latitude": 37.5698444,
      "Longitude": 126.9811096,
      "canType": "재활용",
      "설치위치": "도로(가로)변"
    },
    {
      "Address": "종로구 종로 종로 113 ",
      "Latitude": 37.5705872,
      "Longitude": 126.9901361,
      "canType": "일반쓰레기",
      "설치위치": "도로(가로)변"
    },
    {
      "Address": "종로구 종로 종로 113 ",
      "Latitude": 37.5705872,
      "Longitude": 126.9901361,
      "canType": "재활용",
      "설치위치": "도로(가로)변"
    },
    {
      "Address": "종로구 종로 종로2가 YBM앞 ",
      "Latitude": 37.5704572,
      "Longitude": 126.9869372,
      "canType": "일반쓰레기",
      "설치위치": "정류장(버스, 택시 등)"
    },
    {
      "Address": "종로구 종로 종로3가 YBM앞 ",
      "Latitude": 37.570436,
      "Longitude": 126.992148,
      "canType": "일반쓰레기",
      "설치위치": "정류장(버스, 택시 등)"
    },
    {
      "Address": "종로구 종로 종로3가 맥도널드앞 ",
      "Latitude": 37.570436,
      "Longitude": 126.992148,
      "canType": "일반쓰레기",
      "설치위치": "정류장(버스, 택시 등)"
    },
    {
      "Address": "종로구 종로 종로4가 맥도널드앞 ",
      "Latitude": 37.570506,
      "Longitude": 126.996763,
      "canType": "일반쓰레기",
      "설치위치": "정류장(버스, 택시 등)"
    },
    {
      "Address": "종로구 종로 종로2가 버거킹앞 ",
      "Latitude": 37.5704572,
      "Longitude": 126.9869372,
      "canType": "일반쓰레기",
      "설치위치": "도로변(횡단보도 포함)"
    },
    {
      "Address": "종로구 종로 종로3가 버거킹앞 ",
      "Latitude": 37.570436,
      "Longitude": 126.992148,
      "canType": "재활용",
      "설치위치": "도로변(횡단보도 포함)"
    },
    {
      "Address": "종로구 종로 종로3가 YBM앞 ",
      "Latitude": 37.570436,
      "Longitude": 126.992148,
      "canType": "일반쓰레기",
      "설치위치": "도로(가로)변"
    },
    {
      "Address": "종로구 종로 종로4가 YBM앞 ",
      "Latitude": 37.570506,
      "Longitude": 126.996763,
      "canType": "재활용",
      "설치위치": "도로(가로)변"
    },
    {
      "Address": "종로구 종로 종묘앞 ",
      "Latitude": 37.574583,
      "Longitude": 126.994143,
      "canType": "일반쓰레기",
      "설치위치": "정류장(버스, 택시 등)"
    },
    {
      "Address": "종로구 종로 종묘앞 ",
      "Latitude": 37.574583,
      "Longitude": 126.994143,
      "canType": "일반쓰레기",
      "설치위치": "정류장(버스, 택시 등)"
    },
    {
      "Address": "종로구 종로 종로160 세운상가 ",
      "Latitude": 37.5697077,
      "Longitude": 126.995225,
      "canType": "일반쓰레기",
      "설치위치": "도로(가로)변"
    },
    {
      "Address": "종로구 종로 종로161 세운상가 ",
      "Latitude": 37.5726373,
      "Longitude": 127.0012795,
      "canType": "재활용",
      "설치위치": "도로(가로)변"
    },
    {
      "Address": "종로구 돈화문로 돈화문로 89 ",
      "Latitude": 37.5764139,
      "Longitude": 126.9901784,
      "canType": "일반쓰레기",
      "설치위치": "도로(가로)변"
    },
    {
      "Address": "종로구 돈화문로 돈화문로 89 ",
      "Latitude": 37.5764139,
      "Longitude": 126.9901784,
      "canType": "재활용",
      "설치위치": "도로(가로)변"
    },
    {
      "Address": "종로구 율곡로 구풍문여고 앞 ",
      "Latitude": 37.5761574,
      "Longitude": 126.9947894,
      "canType": "일반쓰레기",
      "설치위치": "도로(가로)변"
    },
    {
      "Address": "종로구 율곡로 구풍문여고 앞 ",
      "Latitude": 37.5761574,
      "Longitude": 126.9947894,
      "canType": "재활용",
      "설치위치": "도로(가로)변"
    },
    {
      "Address": "종로구 율곡로 구풍문여고 앞 ",
      "Latitude": 37.5761574,
      "Longitude": 126.9947894,
      "canType": "일반쓰레기",
      "설치위치": "도로(가로)변"
    },
    {
      "Address": "종로구 율곡로 구풍문여고 앞 ",
      "Latitude": 37.5761574,
      "Longitude": 126.9947894,
      "canType": "재활용",
      "설치위치": "도로(가로)변"
    },
    {
      "Address": "종로구 율곡로 운니동 98-7 ",
      "Latitude": 37.5775644,
      "Longitude": 126.9890014,
      "canType": "일반쓰레기",
      "설치위치": "도로(가로)변"
    },
    {
      "Address": "종로구 율곡로 운니동 98-8 ",
      "Latitude": 37.5767578,
      "Longitude": 126.98825,
      "canType": "재활용",
      "설치위치": "도로(가로)변"
    },
    {
      "Address": "종로구 율곡로 재동99-4 안국역2번출구 ",
      "Latitude": 37.576849,
      "Longitude": 126.9859424,
      "canType": "일반쓰레기",
      "설치위치": "도로(가로)변"
    },
    {
      "Address": "종로구 율곡로 재동99-4 안국역2번출구 ",
      "Latitude": 37.576849,
      "Longitude": 126.9859424,
      "canType": "재활용",
      "설치위치": "도로(가로)변"
    },
    {
      "Address": "종로구 북촌로 북촌로4길 7 재동초교앞 ",
      "Latitude": 37.5798618,
      "Longitude": 126.9856013,
      "canType": "일반쓰레기",
      "설치위치": "도로(가로)변"
    },
    {
      "Address": "종로구 북촌로 북촌로4길 7 재동초교앞 ",
      "Latitude": 37.5798618,
      "Longitude": 126.9856013,
      "canType": "재활용",
      "설치위치": "도로(가로)변"
    },
    {
      "Address": "종로구 북촌로 북촌로58 ",
      "Latitude": 37.5848108,
      "Longitude": 126.984425,
      "canType": "일반쓰레기",
      "설치위치": "도로(가로)변"
    },
    {
      "Address": "종로구 북촌로 북촌로58 ",
      "Latitude": 37.5848108,
      "Longitude": 126.984425,
      "canType": "재활용",
      "설치위치": "도로(가로)변"
    },
    {
      "Address": "종로구 북촌로 북촌로51 돈미약국앞 ",
      "Latitude": 37.5815053,
      "Longitude": 126.9848573,
      "canType": "일반쓰레기",
      "설치위치": "도로(가로)변"
    },
    {
      "Address": "종로구 북촌로 북촌로51 돈미약국앞 ",
      "Latitude": 37.5815053,
      "Longitude": 126.9848573,
      "canType": "재활용",
      "설치위치": "도로(가로)변"
    },
    {
      "Address": "종로구 북촌로 북촌로35 가회동주민센터앞 ",
      "Latitude": 37.5801053,
      "Longitude": 126.9847902,
      "canType": "일반쓰레기",
      "설치위치": "도로(가로)변"
    },
    {
      "Address": "종로구 북촌로 북촌로35 가회동주민센터앞 ",
      "Latitude": 37.5801053,
      "Longitude": 126.9847902,
      "canType": "재활용",
      "설치위치": "도로(가로)변"
    },
    {
      "Address": "종로구 북촌로 북촌로5가길3 정독도서관 ",
      "Latitude": 37.5807856,
      "Longitude": 126.9831611,
      "canType": "일반쓰레기",
      "설치위치": "도로(가로)변"
    },
    {
      "Address": "종로구 북촌로 북촌로5가길3 정독도서관 ",
      "Latitude": 37.5807856,
      "Longitude": 126.9831611,
      "canType": "재활용",
      "설치위치": "도로(가로)변"
    },
    {
      "Address": "종로구 북촌로 율곡로3길 87 ",
      "Latitude": 37.5794223,
      "Longitude": 126.9818411,
      "canType": "일반쓰레기",
      "설치위치": "도로(가로)변"
    },
    {
      "Address": "종로구 북촌로 율곡로3길 87 ",
      "Latitude": 37.5794223,
      "Longitude": 126.9818411,
      "canType": "재활용",
      "설치위치": "도로(가로)변"
    },
    {
      "Address": "종로구 삼청로 삼청로68 삼청파출소 ",
      "Latitude": 37.5816443,
      "Longitude": 126.9813855,
      "canType": "일반쓰레기",
      "설치위치": "도로(가로)변"
    },
    {
      "Address": "종로구 삼청로 삼청로68 삼청파출소 ",
      "Latitude": 37.5816443,
      "Longitude": 126.9813855,
      "canType": "재활용",
      "설치위치": "도로(가로)변"
    },
    {
      "Address": "종로구 삼청로 삼청로68 삼청파출소 ",
      "Latitude": 37.5816443,
      "Longitude": 126.9813855,
      "canType": "일반쓰레기",
      "설치위치": "도로(가로)변"
    },
    {
      "Address": "종로구 삼청로 삼청로99-1 총리 공관앞 ",
      "Latitude": 37.5843942,
      "Longitude": 126.9818527,
      "canType": "일반쓰레기",
      "설치위치": "도로(가로)변"
    },
    {
      "Address": "종로구 삼청로 삼청로99-2 총리 공관앞 ",
      "Latitude": 37.5843155,
      "Longitude": 126.9818391,
      "canType": "재활용",
      "설치위치": "도로(가로)변"
    },
    {
      "Address": "종로구 삼청로 삼청로102 ",
      "Latitude": 37.5845198,
      "Longitude": 126.9823006,
      "canType": "일반쓰레기",
      "설치위치": "도로(가로)변"
    },
    {
      "Address": "종로구 삼청로 삼청로102 ",
      "Latitude": 37.5845198,
      "Longitude": 126.9823006,
      "canType": "재활용",
      "설치위치": "도로(가로)변"
    },
    {
      "Address": "종로구 율곡로 연지동 1-14(현대그룹빌딩 ",
      "Latitude": 37.575846,
      "Longitude": 127.000665,
      "canType": "일반쓰레기",
      "설치위치": "도로(가로)변"
    },
    {
      "Address": "종로구 율곡로 연지동 1-14(현대그룹빌딩 ",
      "Latitude": 37.575846,
      "Longitude": 127.000665,
      "canType": "재활용",
      "설치위치": "도로(가로)변"
    },
    {
      "Address": "종로구 북촌로 북촌로 8(헌법재판소 맞은편) ",
      "Latitude": 37.5779671,
      "Longitude": 126.9846921,
      "canType": "일반쓰레기",
      "설치위치": "도로(가로)변"
    },
    {
      "Address": "종로구 북촌로 북촌로 8(헌법재판소 맞은편) ",
      "Latitude": 37.5779671,
      "Longitude": 126.9846921,
      "canType": "재활용",
      "설치위치": "도로(가로)변"
    },
    {
      "Address": "종로구 돈화문로 돈화문로 27 ",
      "Latitude": 37.5709997,
      "Longitude": 126.991889,
      "canType": "일반쓰레기",
      "설치위치": "도로(가로)변"
    },
    {
      "Address": "종로구 돈화문로 돈화문로 27 ",
      "Latitude": 37.5709997,
      "Longitude": 126.991889,
      "canType": "재활용",
      "설치위치": "도로(가로)변"
    },
    {
      "Address": "종로구 종로 종로6가 동대문종합시장(01-021) ",
      "Latitude": 37.5704247,
      "Longitude": 127.0077575,
      "canType": "일반쓰레기",
      "설치위치": "정류장(버스, 택시 등)"
    },
    {
      "Address": "종로구 종로 종로6가 동대문종합시장(01-021) ",
      "Latitude": 37.5704247,
      "Longitude": 127.0077575,
      "canType": "재활용",
      "설치위치": "정류장(버스, 택시 등)"
    },
    {
      "Address": "종로구 대학로 대학로95 ",
      "Latitude": 37.5807323,
      "Longitude": 126.9994808,
      "canType": "일반쓰레기",
      "설치위치": "도로(가로)변"
    },
    {
      "Address": "종로구 대학로 대학로95 ",
      "Latitude": 37.5807323,
      "Longitude": 126.9994808,
      "canType": "재활용",
      "설치위치": "도로(가로)변"
    },
    {
      "Address": "종로구 창경궁로 창경궁로270 혜화동로터리 ",
      "Latitude": 37.5849587,
      "Longitude": 127.001081,
      "canType": "일반쓰레기",
      "설치위치": "도로(가로)변"
    },
    {
      "Address": "종로구 창경궁로 창경궁로270 혜화동로터리 ",
      "Latitude": 37.5849587,
      "Longitude": 127.001081,
      "canType": "재활용",
      "설치위치": "도로(가로)변"
    },
    {
      "Address": "종로구 창경궁로 창경궁, 서울대병원정류소(01-224) ",
      "Latitude": 37.5787708,
      "Longitude": 126.9948698,
      "canType": "일반쓰레기",
      "설치위치": "정류장(버스, 택시 등)"
    },
    {
      "Address": "종로구 창경궁로 창경궁, 서울대병원정류소(01-224) ",
      "Latitude": 37.5787708,
      "Longitude": 126.9948698,
      "canType": "재활용",
      "설치위치": "정류장(버스, 택시 등)"
    },
    {
      "Address": "종로구 창경궁로 창경궁, 서울대병원정류소(01-002) ",
      "Latitude": 37.5787708,
      "Longitude": 126.9948698,
      "canType": "일반쓰레기",
      "설치위치": "정류장(버스, 택시 등)"
    },
    {
      "Address": "종로구 창경궁로 창경궁, 서울대병원정류소(01-002) ",
      "Latitude": 37.5787708,
      "Longitude": 126.9948698,
      "canType": "재활용",
      "설치위치": "정류장(버스, 택시 등)"
    },
    {
      "Address": "종로구 종로 종로6가 동대문종합시장(01-022) ",
      "Latitude": 37.5704247,
      "Longitude": 127.0077575,
      "canType": "일반쓰레기",
      "설치위치": "정류장(버스, 택시 등)"
    },
    {
      "Address": "종로구 종로 종로6가 동대문종합시장(01-022) ",
      "Latitude": 37.5704247,
      "Longitude": 127.0077575,
      "canType": "일반쓰레기",
      "설치위치": "정류장(버스, 택시 등)"
    },
    {
      "Address": "종로구 대학로 동성중고 버스정류장(01-229) ",
      "Latitude": 37.584586,
      "Longitude": 127.001737,
      "canType": "일반쓰레기",
      "설치위치": "정류장(버스, 택시 등)"
    },
    {
      "Address": "종로구 대학로 동성중고 버스정류장(01-229) ",
      "Latitude": 37.584586,
      "Longitude": 127.001737,
      "canType": "재활용",
      "설치위치": "정류장(버스, 택시 등)"
    },
    {
      "Address": "종로구 대학로 마로니에공원 버스정류장(01-220) ",
      "Latitude": 37.5805009,
      "Longitude": 127.0028245,
      "canType": "일반쓰레기",
      "설치위치": "정류장(버스, 택시 등)"
    },
    {
      "Address": "종로구 대학로 마로니에공원 버스정류장(01-220) ",
      "Latitude": 37.5805009,
      "Longitude": 127.0028245,
      "canType": "재활용",
      "설치위치": "정류장(버스, 택시 등)"
    },
    {
      "Address": "종로구 종로 종로5가 광장시장 버스정류장(01-020) ",
      "Latitude": 37.570766,
      "Longitude": 126.998849,
      "canType": "일반쓰레기",
      "설치위치": "정류장(버스, 택시 등)"
    },
    {
      "Address": "종로구 종로 종로5가 광장시장 버스정류장(01-020) ",
      "Latitude": 37.570766,
      "Longitude": 126.998849,
      "canType": "재활용",
      "설치위치": "정류장(버스, 택시 등)"
    },
    {
      "Address": "종로구 창경궁로 명륜3가 성대입구 버스정류장(01-003) ",
      "Latitude": 37.582756,
      "Longitude": 126.998376,
      "canType": "일반쓰레기",
      "설치위치": "정류장(버스, 택시 등)"
    },
    {
      "Address": "종로구 창경궁로 명륜3가 성대입구 버스정류장(01-004) ",
      "Latitude": 37.582756,
      "Longitude": 126.998376,
      "canType": "재활용",
      "설치위치": "정류장(버스, 택시 등)"
    },
    {
      "Address": "종로구 창경궁로 혜화로터리 버스정류장(01-005) ",
      "Latitude": 37.58217,
      "Longitude": 127.001893,
      "canType": "일반쓰레기",
      "설치위치": "정류장(버스, 택시 등)"
    },
    {
      "Address": "종로구 창경궁로 혜화로터리 버스정류장(01-005) ",
      "Latitude": 37.58217,
      "Longitude": 127.001893,
      "canType": "재활용",
      "설치위치": "정류장(버스, 택시 등)"
    },
    {
      "Address": "종로구 종로 종로266앞 ",
      "Latitude": 37.570802,
      "Longitude": 127.0069261,
      "canType": "일반쓰레기",
      "설치위치": "상가지역"
    },
    {
      "Address": "종로구 종로 종로266앞 ",
      "Latitude": 37.570802,
      "Longitude": 127.0069261,
      "canType": "일반쓰레기",
      "설치위치": "상가지역"
    },
    {
      "Address": "종로구 종로 종로266앞 ",
      "Latitude": 37.570802,
      "Longitude": 127.0069261,
      "canType": "일반쓰레기",
      "설치위치": "상가지역"
    },
    {
      "Address": "종로구 종로 종로4가 종묘 버스정류장(01-018) ",
      "Latitude": 37.570619,
      "Longitude": 126.995296,
      "canType": "일반쓰레기",
      "설치위치": "정류장(버스, 택시 등)"
    },
    {
      "Address": "종로구 종로 종로4가 종묘 버스정류장(01-018) ",
      "Latitude": 37.570619,
      "Longitude": 126.995296,
      "canType": "재활용",
      "설치위치": "정류장(버스, 택시 등)"
    },
    {
      "Address": "종로구 창경궁로 창경궁로 185 ",
      "Latitude": 37.5805813,
      "Longitude": 126.995041,
      "canType": "일반쓰레기",
      "설치위치": "도로변(횡단보도 포함)"
    },
    {
      "Address": "종로구 창경궁로 창경궁로 185 ",
      "Latitude": 37.5805813,
      "Longitude": 126.995041,
      "canType": "재활용",
      "설치위치": "도로변(횡단보도 포함)"
    },
    {
      "Address": "종로구 창경궁로 연건동28-27 ",
      "Latitude": 37.578847,
      "Longitude": 126.9968318,
      "canType": "일반쓰레기",
      "설치위치": "도로(가로)변"
    },
    {
      "Address": "종로구 창경궁로 연건동28-27 ",
      "Latitude": 37.578847,
      "Longitude": 126.9968318,
      "canType": "재활용",
      "설치위치": "도로(가로)변"
    },
    {
      "Address": "종로구 대학로 이화동 99(대학고삼거리) ",
      "Latitude": 37.5760469,
      "Longitude": 127.0037117,
      "canType": "일반쓰레기",
      "설치위치": "도로(가로)변"
    },
    {
      "Address": "종로구 대학로 이화동 99(대학고삼거리) ",
      "Latitude": 37.5760469,
      "Longitude": 127.0037117,
      "canType": "재활용",
      "설치위치": "도로(가로)변"
    },
    {
      "Address": "종로구 종로 종로5가 광장시장 버스정류장(01-019) ",
      "Latitude": 37.570766,
      "Longitude": 126.998849,
      "canType": "일반쓰레기",
      "설치위치": "정류장(버스, 택시 등)"
    },
    {
      "Address": "종로구 종로 종로5가 광장시장 버스정류장(01-019) ",
      "Latitude": 37.570766,
      "Longitude": 126.998849,
      "canType": "재활용",
      "설치위치": "정류장(버스, 택시 등)"
    },
    {
      "Address": "종로구 지봉로 구민회관 입구 ",
      "Latitude": 37.596627,
      "Longitude": 127.006309,
      "canType": "일반쓰레기",
      "설치위치": "도로(가로)변"
    },
    {
      "Address": "종로구 지봉로 구민회관 입구 ",
      "Latitude": 37.596627,
      "Longitude": 127.006309,
      "canType": "재활용",
      "설치위치": "도로(가로)변"
    },
    {
      "Address": "종로구 지봉로 창신초교앞횡단보도 ",
      "Latitude": 37.576107,
      "Longitude": 127.015696,
      "canType": "일반쓰레기",
      "설치위치": "도로변(횡단보도 포함)"
    },
    {
      "Address": "종로구 지봉로 창신초교앞횡단보도 ",
      "Latitude": 37.576107,
      "Longitude": 127.015696,
      "canType": "재활용",
      "설치위치": "도로변(횡단보도 포함)"
    },
    {
      "Address": "종로구 지봉로 창신역1번출구 ",
      "Latitude": 37.579369,
      "Longitude": 127.015299,
      "canType": "일반쓰레기",
      "설치위치": "지하철역 입구"
    },
    {
      "Address": "종로구 지봉로 창신역2번출구 ",
      "Latitude": 37.579369,
      "Longitude": 127.015299,
      "canType": "재활용",
      "설치위치": "지하철역 입구"
    },
    {
      "Address": "종로구 종로 롯데캐슬앞 ",
      "Latitude": 37.5738039,
      "Longitude": 127.0161663,
      "canType": "일반쓰레기",
      "설치위치": "도로(가로)변"
    },
    {
      "Address": "종로구 종로 세종로 kt앞 버스정류장 ",
      "Latitude": 37.5802252,
      "Longitude": 126.9767995,
      "canType": "재활용",
      "설치위치": "도로(가로)변"
    },
    {
      "Address": "종로구 종로 창신2동FS ",
      "Latitude": 37.5739154,
      "Longitude": 127.0104332,
      "canType": "일반쓰레기",
      "설치위치": "도로(가로)변"
    },
    {
      "Address": "종로구 종로 창신3동FS ",
      "Latitude": 37.579853,
      "Longitude": 127.015443,
      "canType": "재활용",
      "설치위치": "도로(가로)변"
    },
    {
      "Address": "종로구 종로 종로300 동일빌딩앞 ",
      "Latitude": 37.57157,
      "Longitude": 127.0111103,
      "canType": "일반쓰레기",
      "설치위치": "도로변(횡단보도 포함)"
    },
    {
      "Address": "종로구 종로 종로301 동일빌딩앞 ",
      "Latitude": 37.572013,
      "Longitude": 127.0111648,
      "canType": "재활용",
      "설치위치": "도로변(횡단보도 포함)"
    },
    {
      "Address": "종로구 종로 종로 413(우리은행앞) ",
      "Latitude": 37.650895,
      "Longitude": 126.884263,
      "canType": "일반쓰레기",
      "설치위치": "도로(가로)변"
    },
    {
      "Address": "종로구 종로 종로 413(우리은행앞) ",
      "Latitude": 37.650895,
      "Longitude": 126.884263,
      "canType": "재활용",
      "설치위치": "도로(가로)변"
    },
    {
      "Address": "종로구 종로 동대문역 버스정류장(01-037) ",
      "Latitude": 37.571731,
      "Longitude": 127.011069,
      "canType": "일반쓰레기",
      "설치위치": "정류장(버스, 택시 등)"
    },
    {
      "Address": "중구 서소문로 시청.서소문청사 버스정류장 02-135 ",
      "Latitude": 37.563699,
      "Longitude": 126.975302,
      "canType": "일반쓰레기",
      "설치위치": "정류소(버스, 택시 등)"
    },
    {
      "Address": "중구 서소문로 시청.서소문청사 버스정류장 02-135 ",
      "Latitude": 37.563699,
      "Longitude": 126.975302,
      "canType": "재활용",
      "설치위치": "정류소(버스, 택시 등)"
    },
    {
      "Address": "중구 서소문로 시청역 11번출구 ",
      "Latitude": 37.5638684,
      "Longitude": 126.9753032,
      "canType": "일반쓰레기",
      "설치위치": "지하철역 입구"
    },
    {
      "Address": "중구 서소문로 시청역 11번출구 ",
      "Latitude": 37.5638684,
      "Longitude": 126.9753032,
      "canType": "재활용",
      "설치위치": "지하철역 입구"
    },
    {
      "Address": "중구 새문안로 정동사거리 삼성병원 맞은편 충정로1가(51-5) ",
      "Latitude": 37.5682567,
      "Longitude": 126.9690815,
      "canType": "일반쓰레기",
      "설치위치": "상가지역"
    },
    {
      "Address": "중구 새문안로 정동사거리 삼성병원 맞은편 충정로1가(51-5) ",
      "Latitude": 37.5682567,
      "Longitude": 126.9690815,
      "canType": "재활용",
      "설치위치": "상가지역"
    },
    {
      "Address": "중구 청파로 한국경제신문사.서소문역사공원(02-108) ",
      "Latitude": 37.560381,
      "Longitude": 126.967821,
      "canType": "일반쓰레기",
      "설치위치": "정류소(버스, 택시 등)"
    },
    {
      "Address": "중구 청파로 한국경제신문사.서소문역사공원(02-108) ",
      "Latitude": 37.560381,
      "Longitude": 126.967821,
      "canType": "재활용",
      "설치위치": "정류소(버스, 택시 등)"
    },
    {
      "Address": "중구 퇴계로 남대문시장.회현역 02-145 ",
      "Latitude": 37.5582615,
      "Longitude": 126.977974,
      "canType": "일반쓰레기",
      "설치위치": "정류소(버스, 택시 등)"
    },
    {
      "Address": "중구 퇴계로 남대문시장.회현역 02-145 ",
      "Latitude": 37.5582615,
      "Longitude": 126.977974,
      "canType": "재활용",
      "설치위치": "정류소(버스, 택시 등)"
    },
    {
      "Address": "중구 퇴계로 티마크 호텔 앞 버스정류장 02-146 ",
      "Latitude": 37.5580546,
      "Longitude": 126.9788104,
      "canType": "일반쓰레기",
      "설치위치": "정류소(버스, 택시 등)"
    },
    {
      "Address": "중구 퇴계로 티마크 호텔 앞 버스정류장 02-146 ",
      "Latitude": 37.5580546,
      "Longitude": 126.9788104,
      "canType": "재활용",
      "설치위치": "정류소(버스, 택시 등)"
    },
    {
      "Address": "중구 퇴계로 회현역 3번출구앞 (퇴계로 48-1) ",
      "Latitude": 37.558387,
      "Longitude": 126.977933,
      "canType": "일반쓰레기",
      "설치위치": "지하철역 입구"
    },
    {
      "Address": "중구 퇴계로 회현역 3번출구앞 (퇴계로 48-1) ",
      "Latitude": 37.558387,
      "Longitude": 126.977933,
      "canType": "재활용",
      "설치위치": "지하철역 입구"
    },
    {
      "Address": "중구 칠패로 염천교 02-116 ",
      "Latitude": 37.5595343,
      "Longitude": 126.9708697,
      "canType": "일반쓰레기",
      "설치위치": "정류소(버스, 택시 등)"
    },
    {
      "Address": "중구 칠패로 염천교 02-116 ",
      "Latitude": 37.5595343,
      "Longitude": 126.9708697,
      "canType": "재활용",
      "설치위치": "정류소(버스, 택시 등)"
    },
    {
      "Address": "중구 만리재로 손기정 체육공원 입구 버스정류장(02-102) ",
      "Latitude": 37.554456,
      "Longitude": 126.966205,
      "canType": "일반쓰레기",
      "설치위치": "정류소(버스, 택시 등)"
    },
    {
      "Address": "중구 만리재로 손기정 체육공원 입구 버스정류장(02-102) ",
      "Latitude": 37.554456,
      "Longitude": 126.966205,
      "canType": "재활용",
      "설치위치": "정류소(버스, 택시 등)"
    },
    {
      "Address": "중구 서소문로 종근당 충정로역 버스정류장(02-107) ",
      "Latitude": 37.559604,
      "Longitude": 126.964459,
      "canType": "일반쓰레기",
      "설치위치": "정류소(버스, 택시 등)"
    },
    {
      "Address": "중구 서소문로 종근당 충정로역 버스정류장(02-107) ",
      "Latitude": 37.559604,
      "Longitude": 126.964459,
      "canType": "재활용",
      "설치위치": "정류소(버스, 택시 등)"
    },
    {
      "Address": "중구 통일로 서울역 우체국 옆 버스정류장(02-685) ",
      "Latitude": 37.557571,
      "Longitude": 126.971423,
      "canType": "일반쓰레기",
      "설치위치": "정류소(버스, 택시 등)"
    },
    {
      "Address": "중구 통일로 서울역 우체국 옆 버스정류장(02-685) ",
      "Latitude": 37.557571,
      "Longitude": 126.971423,
      "canType": "재활용",
      "설치위치": "정류소(버스, 택시 등)"
    },
    {
      "Address": "중구 퇴계로 명동역 2번 출구 뒤 ",
      "Latitude": 37.5609892,
      "Longitude": 126.9861868,
      "canType": "일반쓰레기",
      "설치위치": "지하철역 입구"
    },
    {
      "Address": "중구 퇴계로 명동역 2번 출구 뒤 ",
      "Latitude": 37.5609892,
      "Longitude": 126.9861868,
      "canType": "재활용",
      "설치위치": "지하철역 입구"
    },
    {
      "Address": "중구 퇴계로 명동역 4번 출귀 뒤(버스정류장 02-149) ",
      "Latitude": 37.561093,
      "Longitude": 126.986555,
      "canType": "일반쓰레기",
      "설치위치": "정류소(버스, 택시 등)"
    },
    {
      "Address": "중구 퇴계로 명동역 4번 출귀 뒤(버스정류장 02-149) ",
      "Latitude": 37.561093,
      "Longitude": 126.986555,
      "canType": "재활용",
      "설치위치": "정류소(버스, 택시 등)"
    },
    {
      "Address": "중구 퇴계로 명동역 5번 출구쪽(밀리오레) 버스정류장 02-150 ",
      "Latitude": 37.5609892,
      "Longitude": 126.9861868,
      "canType": "일반쓰레기",
      "설치위치": "정류소(버스, 택시 등)"
    },
    {
      "Address": "중구 퇴계로 명동역 5번 출구쪽(밀리오레) 버스정류장 02-150 ",
      "Latitude": 37.5609892,
      "Longitude": 126.9861868,
      "canType": "재활용",
      "설치위치": "정류소(버스, 택시 등)"
    },
    {
      "Address": "중구 퇴계로 한옥마을 버스정류장 명동방면 (02-151) ",
      "Latitude": 37.559315,
      "Longitude": 126.994477,
      "canType": "일반쓰레기",
      "설치위치": "정류소(버스, 택시 등)"
    },
    {
      "Address": "중구 퇴계로 한옥마을 버스정류장 명동방면 (02-151) ",
      "Latitude": 37.559315,
      "Longitude": 126.994477,
      "canType": "재활용",
      "설치위치": "정류소(버스, 택시 등)"
    },
    {
      "Address": "중구 퇴계로 충무파출소 앞 ",
      "Latitude": 37.5600913,
      "Longitude": 126.9852746,
      "canType": "일반쓰레기",
      "설치위치": "광장, 공원 등 다중집합장소"
    },
    {
      "Address": "중구 퇴계로 충무파출소 앞 ",
      "Latitude": 37.5600913,
      "Longitude": 126.9852746,
      "canType": "재활용",
      "설치위치": "광장, 공원 등 다중집합장소"
    },
    {
      "Address": "중구 퇴계로 명동역 6번출구 앞 ",
      "Latitude": 37.5609892,
      "Longitude": 126.9861868,
      "canType": "일반쓰레기",
      "설치위치": "지하철역 입구"
    },
    {
      "Address": "중구 퇴계로 명동역 6번출구 앞 ",
      "Latitude": 37.5609892,
      "Longitude": 126.9861868,
      "canType": "일반쓰레기",
      "설치위치": "지하철역 입구"
    },
    {
      "Address": "중구 퇴계로 명동역 6번출구 앞 ",
      "Latitude": 37.5609892,
      "Longitude": 126.9861868,
      "canType": "일반쓰레기",
      "설치위치": "지하철역 입구"
    },
    {
      "Address": "중구 퇴계로 명동역 6번출구 앞 ",
      "Latitude": 37.5609892,
      "Longitude": 126.9861868,
      "canType": "재활용",
      "설치위치": "지하철역 입구"
    },
    {
      "Address": "중구 퇴계로 명동역 6번출구 앞 ",
      "Latitude": 37.5609892,
      "Longitude": 126.9861868,
      "canType": "재활용",
      "설치위치": "지하철역 입구"
    },
    {
      "Address": "중구 퇴계로 명동역 6번출구 앞 ",
      "Latitude": 37.5609892,
      "Longitude": 126.9861868,
      "canType": "재활용",
      "설치위치": "지하철역 입구"
    },
    {
      "Address": "중구 삼일대로 평화방송앞 버스환승센터 02-002 ",
      "Latitude": 37.5642734,
      "Longitude": 126.988314,
      "canType": "일반쓰레기",
      "설치위치": "정류소(버스, 택시 등)"
    },
    {
      "Address": "중구 삼일대로 평화방송앞 버스환승센터 02-002 ",
      "Latitude": 37.5642734,
      "Longitude": 126.988314,
      "canType": "일반쓰레기",
      "설치위치": "정류소(버스, 택시 등)"
    },
    {
      "Address": "중구 삼일대로 평화방송앞 버스환승센터 02-002 ",
      "Latitude": 37.5642734,
      "Longitude": 126.988314,
      "canType": "재활용",
      "설치위치": "정류소(버스, 택시 등)"
    },
    {
      "Address": "중구 삼일대로 남대문세무서 앞 환승센터 02-001 ",
      "Latitude": 37.5650049,
      "Longitude": 126.9882022,
      "canType": "일반쓰레기",
      "설치위치": "정류소(버스, 택시 등)"
    },
    {
      "Address": "중구 삼일대로 남대문세무서 앞 환승센터 02-001 ",
      "Latitude": 37.5650049,
      "Longitude": 126.9882022,
      "canType": "재활용",
      "설치위치": "정류소(버스, 택시 등)"
    },
    {
      "Address": "중구 을지로 명동 하나은행본점 앞 ",
      "Latitude": 37.5664524,
      "Longitude": 126.9818516,
      "canType": "일반쓰레기",
      "설치위치": "상가지역"
    },
    {
      "Address": "중구 을지로 명동 하나은행본점 앞 ",
      "Latitude": 37.5664524,
      "Longitude": 126.9818516,
      "canType": "재활용",
      "설치위치": "상가지역"
    },
    {
      "Address": "중구 남대문로 명동입구 관광경찰초소 ",
      "Latitude": 37.564184,
      "Longitude": 126.98249,
      "canType": "일반쓰레기",
      "설치위치": "상가지역"
    },
    {
      "Address": "중구 남대문로 명동입구 관광경찰초소 ",
      "Latitude": 37.564184,
      "Longitude": 126.98249,
      "canType": "재활용",
      "설치위치": "상가지역"
    },
    {
      "Address": "중구 명동길 명동 신한은행 앞 ",
      "Latitude": 37.5639519,
      "Longitude": 126.9847189,
      "canType": "일반쓰레기",
      "설치위치": "상가지역"
    },
    {
      "Address": "중구 명동길 명동 신한은행 앞 ",
      "Latitude": 37.5639519,
      "Longitude": 126.9847189,
      "canType": "일반쓰레기",
      "설치위치": "상가지역"
    },
    {
      "Address": "중구 명동길 명동 신한은행 앞 ",
      "Latitude": 37.5639519,
      "Longitude": 126.9847189,
      "canType": "일반쓰레기",
      "설치위치": "상가지역"
    },
    {
      "Address": "중구 명동길 명동 신한은행 앞 ",
      "Latitude": 37.5639519,
      "Longitude": 126.9847189,
      "canType": "일반쓰레기",
      "설치위치": "상가지역"
    },
    {
      "Address": "중구 명동길 명동 신한은행 앞 ",
      "Latitude": 37.5639519,
      "Longitude": 126.9847189,
      "canType": "재활용",
      "설치위치": "상가지역"
    },
    {
      "Address": "중구 명동길 명동 신한은행 앞 ",
      "Latitude": 37.5639519,
      "Longitude": 126.9847189,
      "canType": "재활용",
      "설치위치": "상가지역"
    },
    {
      "Address": "중구 명동길 명동 신한은행 앞 ",
      "Latitude": 37.5639519,
      "Longitude": 126.9847189,
      "canType": "재활용",
      "설치위치": "상가지역"
    },
    {
      "Address": "중구 명동길 명동 신한은행 앞 ",
      "Latitude": 37.5639519,
      "Longitude": 126.9847189,
      "canType": "재활용",
      "설치위치": "상가지역"
    },
    {
      "Address": "중구 명동길 명동 우리은행 앞 ",
      "Latitude": 37.5635916,
      "Longitude": 126.9856943,
      "canType": "일반쓰레기",
      "설치위치": "상가지역"
    },
    {
      "Address": "중구 명동길 명동 우리은행 앞 ",
      "Latitude": 37.5635916,
      "Longitude": 126.9856943,
      "canType": "일반쓰레기",
      "설치위치": "상가지역"
    },
    {
      "Address": "중구 명동길 명동 우리은행 앞 ",
      "Latitude": 37.5635916,
      "Longitude": 126.9856943,
      "canType": "재활용",
      "설치위치": "상가지역"
    },
    {
      "Address": "중구 명동길 명동 우리은행 앞 ",
      "Latitude": 37.5635916,
      "Longitude": 126.9856943,
      "canType": "재활용",
      "설치위치": "상가지역"
    },
    {
      "Address": "중구 남대문로 명동 국민은행앞 버스정류장(02-253) ",
      "Latitude": 37.5619799,
      "Longitude": 126.9810805,
      "canType": "일반쓰레기",
      "설치위치": "정류소(버스, 택시 등)"
    },
    {
      "Address": "중구 남대문로 명동 국민은행앞 버스정류장(02-253) ",
      "Latitude": 37.5619799,
      "Longitude": 126.9810805,
      "canType": "재활용",
      "설치위치": "정류소(버스, 택시 등)"
    },
    {
      "Address": "중구 퇴계로 명동역 국민은행 앞(공항버스정류장 퇴계로 131) ",
      "Latitude": 37.5613874,
      "Longitude": 126.9962601,
      "canType": "일반쓰레기",
      "설치위치": "정류소(버스, 택시 등)"
    },
    {
      "Address": "중구 퇴계로 명동역 국민은행 앞(공항버스정류장 퇴계로 131) ",
      "Latitude": 37.5613874,
      "Longitude": 126.9962601,
      "canType": "재활용",
      "설치위치": "정류소(버스, 택시 등)"
    },
    {
      "Address": "중구 남대문로 한국은행.신세계앞 버스정류장(02-278) ",
      "Latitude": 37.5614,
      "Longitude": 126.979318,
      "canType": "일반쓰레기",
      "설치위치": "정류소(버스, 택시 등)"
    },
    {
      "Address": "중구 남대문로 한국은행.신세계앞 버스정류장(02-278) ",
      "Latitude": 37.5614,
      "Longitude": 126.979318,
      "canType": "재활용",
      "설치위치": "정류소(버스, 택시 등)"
    },
    {
      "Address": "중구 삼일대로 명동 성당 앞 ",
      "Latitude": 37.5645075,
      "Longitude": 126.9880797,
      "canType": "일반쓰레기",
      "설치위치": "광장, 공원 등 다중집합장소"
    },
    {
      "Address": "중구 삼일대로 명동 성당 앞 ",
      "Latitude": 37.5645075,
      "Longitude": 126.9880797,
      "canType": "재활용",
      "설치위치": "광장, 공원 등 다중집합장소"
    },
    {
      "Address": "중구 명동길 명동 자라 골목 ",
      "Latitude": 37.563579,
      "Longitude": 126.982856,
      "canType": "일반쓰레기",
      "설치위치": "상가지역"
    },
    {
      "Address": "중구 명동길 명동 자라 골목 ",
      "Latitude": 37.563579,
      "Longitude": 126.982856,
      "canType": "재활용",
      "설치위치": "상가지역"
    },
    {
      "Address": "중구 명동9길 명동 원당감자탕 앞(명동9길 13) ",
      "Latitude": 37.5644056,
      "Longitude": 126.9847838,
      "canType": "일반쓰레기",
      "설치위치": "상가지역"
    },
    {
      "Address": "중구 명동9길 명동 원당감자탕 앞(명동9길 13) ",
      "Latitude": 37.5644056,
      "Longitude": 126.9847838,
      "canType": "재활용",
      "설치위치": "상가지역"
    },
    {
      "Address": "중구 삼일대로 명동지하쇼핑센터 15번 출구 ",
      "Latitude": 37.563692,
      "Longitude": 126.9822107,
      "canType": "일반쓰레기",
      "설치위치": "상가지역"
    },
    {
      "Address": "중구 삼일대로 명동지하쇼핑센터 15번 출구 ",
      "Latitude": 37.563692,
      "Longitude": 126.9822107,
      "canType": "일반쓰레기",
      "설치위치": "상가지역"
    },
    {
      "Address": "중구 삼일대로 명동지하쇼핑센터 15번 출구 ",
      "Latitude": 37.563692,
      "Longitude": 126.9822107,
      "canType": "재활용",
      "설치위치": "상가지역"
    },
    {
      "Address": "중구 삼일대로 명동지하쇼핑센터 15번 출구 ",
      "Latitude": 37.563692,
      "Longitude": 126.9822107,
      "canType": "재활용",
      "설치위치": "상가지역"
    },
    {
      "Address": "중구 삼일대로 롯데영프라자(한진빌딩)앞 버스정류장(02-142) ",
      "Latitude": 37.5627749,
      "Longitude": 126.9888654,
      "canType": "일반쓰레기",
      "설치위치": "정류소(버스, 택시 등)"
    },
    {
      "Address": "중구 삼일대로 롯데영프라자(한진빌딩)앞 버스정류장(02-142) ",
      "Latitude": 37.5627749,
      "Longitude": 126.9888654,
      "canType": "재활용",
      "설치위치": "정류소(버스, 택시 등)"
    },
    {
      "Address": "중구 삼일대로 해운센터.롯데영프라자 버스정류장(02-141) ",
      "Latitude": 37.563033,
      "Longitude": 126.981661,
      "canType": "일반쓰레기",
      "설치위치": "정류소(버스, 택시 등)"
    },
    {
      "Address": "중구 삼일대로 해운센터.롯데영프라자 버스정류장(02-141) ",
      "Latitude": 37.563033,
      "Longitude": 126.981661,
      "canType": "재활용",
      "설치위치": "정류소(버스, 택시 등)"
    },
    {
      "Address": "중구 을지로 을지로입구, 로얄호텔 버스정류장 02-156 ",
      "Latitude": 37.565938,
      "Longitude": 126.985296,
      "canType": "일반쓰레기",
      "설치위치": "정류소(버스, 택시 등)"
    },
    {
      "Address": "중구 을지로 을지로입구, 로얄호텔 버스정류장 02-156 ",
      "Latitude": 37.565938,
      "Longitude": 126.985296,
      "canType": "재활용",
      "설치위치": "정류소(버스, 택시 등)"
    },
    {
      "Address": "중구 을지로 을지로2가, 기업은행본점 앞 버스정류장 02-158 ",
      "Latitude": 37.5664541,
      "Longitude": 126.9865526,
      "canType": "일반쓰레기",
      "설치위치": "정류소(버스, 택시 등)"
    },
    {
      "Address": "중구 을지로 을지로2가, 기업은행본점 앞 버스정류장 02-158 ",
      "Latitude": 37.5664541,
      "Longitude": 126.9865526,
      "canType": "재활용",
      "설치위치": "정류소(버스, 택시 등)"
    },
    {
      "Address": "중구 을지로 을지로2가, 파인에비뉴 앞 버스정류장(02-159) ",
      "Latitude": 37.5657852,
      "Longitude": 126.9887184,
      "canType": "일반쓰레기",
      "설치위치": "정류소(버스, 택시 등)"
    },
    {
      "Address": "중구 을지로 을지로2가, 파인에비뉴 앞 버스정류장(02-159) ",
      "Latitude": 37.5657852,
      "Longitude": 126.9887184,
      "canType": "재활용",
      "설치위치": "정류소(버스, 택시 등)"
    },
    {
      "Address": "중구 을지로 을지로3가 버스정류장(02-161) ",
      "Latitude": 37.5663261,
      "Longitude": 126.9922084,
      "canType": "일반쓰레기",
      "설치위치": "정류소(버스, 택시 등)"
    },
    {
      "Address": "중구 을지로 을지로3가 버스정류장(02-161) ",
      "Latitude": 37.5663261,
      "Longitude": 126.9922084,
      "canType": "재활용",
      "설치위치": "정류소(버스, 택시 등)"
    },
    {
      "Address": "중구 을지로 을지로 3가 12번출구 뒤 ",
      "Latitude": 37.5663261,
      "Longitude": 126.9922084,
      "canType": "일반쓰레기",
      "설치위치": "지하철역 입구"
    },
    {
      "Address": "중구 을지로 을지로 3가 12번출구 뒤 ",
      "Latitude": 37.5663261,
      "Longitude": 126.9922084,
      "canType": "재활용",
      "설치위치": "지하철역 입구"
    },
    {
      "Address": "중구 남대문로 북창동.남대문시장 버스정류장(02-127) ",
      "Latitude": 37.561208,
      "Longitude": 126.977957,
      "canType": "일반쓰레기",
      "설치위치": "정류소(버스, 택시 등)"
    },
    {
      "Address": "중구 남대문로 북창동.남대문시장 버스정류장(02-127) ",
      "Latitude": 37.561208,
      "Longitude": 126.977957,
      "canType": "재활용",
      "설치위치": "정류소(버스, 택시 등)"
    },
    {
      "Address": "중구 소공로 시청광장 버스정류장(02-641) ",
      "Latitude": 37.5601443,
      "Longitude": 126.9959649,
      "canType": "일반쓰레기",
      "설치위치": "정류소(버스, 택시 등)"
    },
    {
      "Address": "중구 소공로 시청광장 버스정류장(02-641) ",
      "Latitude": 37.5601443,
      "Longitude": 126.9959649,
      "canType": "재활용",
      "설치위치": "정류소(버스, 택시 등)"
    },
    {
      "Address": "중구 을지로 을지로입구.시청입구(02-157) ",
      "Latitude": 37.566163,
      "Longitude": 126.981025,
      "canType": "일반쓰레기",
      "설치위치": "정류소(버스, 택시 등)"
    },
    {
      "Address": "중구 을지로 을지로입구.시청입구(02-157) ",
      "Latitude": 37.566163,
      "Longitude": 126.981025,
      "canType": "재활용",
      "설치위치": "정류소(버스, 택시 등)"
    },
    {
      "Address": "중구 남대문로 우리은행종로지점 버스정류장(02-139) ",
      "Latitude": 37.567846,
      "Longitude": 126.982949,
      "canType": "일반쓰레기",
      "설치위치": "정류소(버스, 택시 등)"
    },
    {
      "Address": "중구 남대문로 우리은행종로지점 버스정류장(02-139) ",
      "Latitude": 37.567846,
      "Longitude": 126.982949,
      "canType": "재활용",
      "설치위치": "정류소(버스, 택시 등)"
    },
    {
      "Address": "중구 청계천로 청계1가.광교 버스정류장(02-224) ",
      "Latitude": 37.568702,
      "Longitude": 126.985014,
      "canType": "일반쓰레기",
      "설치위치": "정류소(버스, 택시 등)"
    },
    {
      "Address": "중구 청계천로 청계1가.광교 버스정류장(02-224) ",
      "Latitude": 37.568702,
      "Longitude": 126.985014,
      "canType": "재활용",
      "설치위치": "정류소(버스, 택시 등)"
    },
    {
      "Address": "중구 을지로 을지로3가 3번출구 ",
      "Latitude": 37.566477,
      "Longitude": 126.992266,
      "canType": "일반쓰레기",
      "설치위치": "지하철역 입구"
    },
    {
      "Address": "중구 을지로 을지로3가 3번출구 ",
      "Latitude": 37.566477,
      "Longitude": 126.992266,
      "canType": "재활용",
      "설치위치": "지하철역 입구"
    },
    {
      "Address": "중구 을지로 을지로3가 대림상가 버스정류장(02-162) ",
      "Latitude": 37.5663261,
      "Longitude": 126.9922084,
      "canType": "일반쓰레기",
      "설치위치": "정류소(버스, 택시 등)"
    },
    {
      "Address": "중구 을지로 을지로3가 대림상가 버스정류장(02-162) ",
      "Latitude": 37.5663261,
      "Longitude": 126.9922084,
      "canType": "재활용",
      "설치위치": "정류소(버스, 택시 등)"
    },
    {
      "Address": "중구 을지로 을지로5가 방산시장앞 버스정류장(02-272) ",
      "Latitude": 37.5667242,
      "Longitude": 127.0023556,
      "canType": "일반쓰레기",
      "설치위치": "정류소(버스, 택시 등)"
    },
    {
      "Address": "중구 을지로 을지로5가 방산시장앞 버스정류장(02-272) ",
      "Latitude": 37.5667242,
      "Longitude": 127.0023556,
      "canType": "재활용",
      "설치위치": "정류소(버스, 택시 등)"
    },
    {
      "Address": "중구 을지로 을지로5가 중부시장 버스정류장(02-166) ",
      "Latitude": 37.566684,
      "Longitude": 127.0009,
      "canType": "일반쓰레기",
      "설치위치": "정류소(버스, 택시 등)"
    },
    {
      "Address": "중구 을지로 을지로5가 중부시장 버스정류장(02-166) ",
      "Latitude": 37.566684,
      "Longitude": 127.0009,
      "canType": "재활용",
      "설치위치": "정류소(버스, 택시 등)"
    },
    {
      "Address": "중구 을지로 을지로6가 국립의료원 앞 버스정류장(02-172) ",
      "Latitude": 37.5672412,
      "Longitude": 127.0056589,
      "canType": "일반쓰레기",
      "설치위치": "정류소(버스, 택시 등)"
    },
    {
      "Address": "중구 을지로 을지로6가 국립의료원 앞 버스정류장(02-172) ",
      "Latitude": 37.5672412,
      "Longitude": 127.0056589,
      "canType": "재활용",
      "설치위치": "정류소(버스, 택시 등)"
    },
    {
      "Address": "중구 을지로 을지로6가 둘둘치킨 버스정류장(02-169) ",
      "Latitude": 37.5677844,
      "Longitude": 127.0068849,
      "canType": "일반쓰레기",
      "설치위치": "정류소(버스, 택시 등)"
    },
    {
      "Address": "중구 을지로 을지로6가 둘둘치킨 버스정류장(02-169) ",
      "Latitude": 37.5677844,
      "Longitude": 127.0068849,
      "canType": "재활용",
      "설치위치": "정류소(버스, 택시 등)"
    },
    {
      "Address": "중구 장충단로 장충단로 파리바게트(장충점) 앞 버스정류장(02-204) ",
      "Latitude": 37.5597641,
      "Longitude": 127.0052075,
      "canType": "일반쓰레기",
      "설치위치": "정류소(버스, 택시 등)"
    },
    {
      "Address": "중구 장충단로 장충단로 파리바게트(장충점) 앞 버스정류장(02-204) ",
      "Latitude": 37.5597641,
      "Longitude": 127.0052075,
      "canType": "재활용",
      "설치위치": "정류소(버스, 택시 등)"
    },
    {
      "Address": "중구 을지로 을지로 4가 로터리 농협 앞 (버스정류장 02-165) ",
      "Latitude": 37.566621,
      "Longitude": 126.997733,
      "canType": "일반쓰레기",
      "설치위치": "정류소(버스, 택시 등)"
    },
    {
      "Address": "중구 을지로 을지로 4가 로터리 농협 앞 (버스정류장 02-165) ",
      "Latitude": 37.566621,
      "Longitude": 126.997733,
      "canType": "재활용",
      "설치위치": "정류소(버스, 택시 등)"
    },
    {
      "Address": "중구 을지로 을지로 4가역 버스정류장 02-163 ",
      "Latitude": 37.566621,
      "Longitude": 126.997733,
      "canType": "일반쓰레기",
      "설치위치": "정류소(버스, 택시 등)"
    },
    {
      "Address": "중구 을지로 을지로 4가역 버스정류장 02-163 ",
      "Latitude": 37.566621,
      "Longitude": 126.997733,
      "canType": "재활용",
      "설치위치": "정류소(버스, 택시 등)"
    },
    {
      "Address": "중구 충무로 충무로역 7번출구 매일경제신문 버스정류장(02-242) ",
      "Latitude": 37.5648394,
      "Longitude": 126.9927416,
      "canType": "일반쓰레기",
      "설치위치": "정류소(버스, 택시 등)"
    },
    {
      "Address": "중구 충무로 충무로역 7번출구 매일경제신문 버스정류장(02-242) ",
      "Latitude": 37.5648394,
      "Longitude": 126.9927416,
      "canType": "재활용",
      "설치위치": "정류소(버스, 택시 등)"
    },
    {
      "Address": "중구 충무로 충무로역2번출구 대한극장 앞버스정류(02-153) ",
      "Latitude": 37.561272,
      "Longitude": 126.994928,
      "canType": "일반쓰레기",
      "설치위치": "정류소(버스, 택시 등)"
    },
    {
      "Address": "중구 충무로 충무로역2번출구 대한극장 앞버스정류(02-153) ",
      "Latitude": 37.561272,
      "Longitude": 126.994928,
      "canType": "재활용",
      "설치위치": "정류소(버스, 택시 등)"
    },
    {
      "Address": "중구 충무로 충무로역8번출구.대한극장앞 버스정류장(02-154) ",
      "Latitude": 37.561925,
      "Longitude": 126.996459,
      "canType": "일반쓰레기",
      "설치위치": "정류소(버스, 택시 등)"
    },
    {
      "Address": "중구 충무로 충무로역8번출구.대한극장앞 버스정류장(02-154) ",
      "Latitude": 37.561925,
      "Longitude": 126.996459,
      "canType": "재활용",
      "설치위치": "정류소(버스, 택시 등)"
    },
    {
      "Address": "중구 퇴계로 퇴계로6가 CJ제일제당 앞 정류장 02-206 ",
      "Latitude": 37.563942,
      "Longitude": 127.0032778,
      "canType": "일반쓰레기",
      "설치위치": "정류소(버스, 택시 등)"
    },
    {
      "Address": "중구 퇴계로 퇴계로6가 CJ제일제당 앞 정류장 02-206 ",
      "Latitude": 37.563942,
      "Longitude": 127.0032778,
      "canType": "재활용",
      "설치위치": "정류소(버스, 택시 등)"
    },
    {
      "Address": "중구 퇴계로 퇴계로6가 버스정류장 02-205 ",
      "Latitude": 37.563303,
      "Longitude": 127.003809,
      "canType": "일반쓰레기",
      "설치위치": "정류소(버스, 택시 등)"
    },
    {
      "Address": "중구 퇴계로 퇴계로6가 버스정류장 02-205 ",
      "Latitude": 37.563303,
      "Longitude": 127.003809,
      "canType": "재활용",
      "설치위치": "정류소(버스, 택시 등)"
    },
    {
      "Address": "중구 을지로 을지로3가 버스정류장 02-160 ",
      "Latitude": 37.5663261,
      "Longitude": 126.9922084,
      "canType": "일반쓰레기",
      "설치위치": "정류소(버스, 택시 등)"
    },
    {
      "Address": "중구 을지로 을지로3가 버스정류장 02-160 ",
      "Latitude": 37.5663261,
      "Longitude": 126.9922084,
      "canType": "재활용",
      "설치위치": "정류소(버스, 택시 등)"
    },
    {
      "Address": "중구 장충단로 동대문역사공원역 8번출구버스정류장 앞 02-170 ",
      "Latitude": 37.565682,
      "Longitude": 127.008953,
      "canType": "일반쓰레기",
      "설치위치": "정류소(버스, 택시 등)"
    },
    {
      "Address": "중구 장충단로 동대문역사공원역 8번출구버스정류장 앞 02-170 ",
      "Latitude": 37.565682,
      "Longitude": 127.008953,
      "canType": "재활용",
      "설치위치": "정류소(버스, 택시 등)"
    },
    {
      "Address": "중구 을지로 을지로 246 공항버스 정류장 ",
      "Latitude": 37.5407766,
      "Longitude": 127.0111186,
      "canType": "일반쓰레기",
      "설치위치": "정류소(버스, 택시 등)"
    },
    {
      "Address": "중구 을지로 을지로 246 공항버스 정류장 ",
      "Latitude": 37.5407766,
      "Longitude": 127.0111186,
      "canType": "재활용",
      "설치위치": "정류소(버스, 택시 등)"
    },
    {
      "Address": "중구 동호로 라마다 호텔 앞 버스정류장 02-168 ",
      "Latitude": 37.5658653,
      "Longitude": 127.0027949,
      "canType": "일반쓰레기",
      "설치위치": "정류소(버스, 택시 등)"
    },
    {
      "Address": "중구 동호로 라마다 호텔 앞 버스정류장 02-168 ",
      "Latitude": 37.5658653,
      "Longitude": 127.0027949,
      "canType": "재활용",
      "설치위치": "정류소(버스, 택시 등)"
    },
    {
      "Address": "중구 동호로 방산시장,훈련원종합체육관 버스정류장 02-167 ",
      "Latitude": 37.567904,
      "Longitude": 127.002401,
      "canType": "일반쓰레기",
      "설치위치": "정류소(버스, 택시 등)"
    },
    {
      "Address": "중구 동호로 방산시장,훈련원종합체육관 버스정류장 02-167 ",
      "Latitude": 37.567904,
      "Longitude": 127.002401,
      "canType": "재활용",
      "설치위치": "정류소(버스, 택시 등)"
    },
    {
      "Address": "중구 을지로 동대문역사공원역 1번출구 건너편 버스정류장(02-235) ",
      "Latitude": 37.565682,
      "Longitude": 127.008953,
      "canType": "일반쓰레기",
      "설치위치": "정류소(버스, 택시 등)"
    },
    {
      "Address": "중구 을지로 동대문역사공원역 1번출구 건너편 버스정류장(02-235) ",
      "Latitude": 37.565682,
      "Longitude": 127.008953,
      "canType": "재활용",
      "설치위치": "정류소(버스, 택시 등)"
    },
    {
      "Address": "중구 장충단로 동대문역사문화공원 버스정류장(02-174) ",
      "Latitude": 37.565528,
      "Longitude": 127.009066,
      "canType": "일반쓰레기",
      "설치위치": "정류소(버스, 택시 등)"
    },
    {
      "Address": "중구 장충단로 동대문역사문화공원 버스정류장(02-174) ",
      "Latitude": 37.565528,
      "Longitude": 127.009066,
      "canType": "재활용",
      "설치위치": "정류소(버스, 택시 등)"
    },
    {
      "Address": "중구 퇴계로 광희문 버스정류장 (02-275) ",
      "Latitude": 37.5643603,
      "Longitude": 127.0099766,
      "canType": "일반쓰레기",
      "설치위치": "정류소(버스, 택시 등)"
    },
    {
      "Address": "중구 퇴계로 광희문 버스정류장 (02-275) ",
      "Latitude": 37.5643603,
      "Longitude": 127.0099766,
      "canType": "재활용",
      "설치위치": "정류소(버스, 택시 등)"
    },
    {
      "Address": "중구 퇴계로 광희문, 광희동사거리 버스정류장(02-274) ",
      "Latitude": 37.564375,
      "Longitude": 127.009149,
      "canType": "일반쓰레기",
      "설치위치": "정류소(버스, 택시 등)"
    },
    {
      "Address": "중구 퇴계로 광희문, 광희동사거리 버스정류장(02-274) ",
      "Latitude": 37.564375,
      "Longitude": 127.009149,
      "canType": "재활용",
      "설치위치": "정류소(버스, 택시 등)"
    },
    {
      "Address": "중구 장충단로 광희문 버스정류장(02-171) ",
      "Latitude": 37.564506,
      "Longitude": 127.008683,
      "canType": "일반쓰레기",
      "설치위치": "정류소(버스, 택시 등)"
    },
    {
      "Address": "중구 장충단로 광희문 버스정류장(02-171) ",
      "Latitude": 37.564506,
      "Longitude": 127.008683,
      "canType": "재활용",
      "설치위치": "정류소(버스, 택시 등)"
    },
    {
      "Address": "중구 퇴계로 충무아트센터 버스정류장 02-177 ",
      "Latitude": 37.5660139,
      "Longitude": 127.0148131,
      "canType": "일반쓰레기",
      "설치위치": "정류소(버스, 택시 등)"
    },
    {
      "Address": "중구 퇴계로 충무아트센터 버스정류장 02-177 ",
      "Latitude": 37.5660139,
      "Longitude": 127.0148131,
      "canType": "재활용",
      "설치위치": "정류소(버스, 택시 등)"
    },
    {
      "Address": "중구 퇴계로 중부소방서 버스정류장 02-178 ",
      "Latitude": 37.5648219,
      "Longitude": 127.0153596,
      "canType": "일반쓰레기",
      "설치위치": "정류소(버스, 택시 등)"
    },
    {
      "Address": "중구 퇴계로 중부소방서 버스정류장 02-178 ",
      "Latitude": 37.5648219,
      "Longitude": 127.0153596,
      "canType": "재활용",
      "설치위치": "정류소(버스, 택시 등)"
    },
    {
      "Address": "중구 다산로 신당동 떡복이타운 버스정류장 02-188 (피쉬고고) ",
      "Latitude": 37.5587251,
      "Longitude": 127.0120213,
      "canType": "일반쓰레기",
      "설치위치": "정류소(버스, 택시 등)"
    },
    {
      "Address": "중구 다산로 신당동 떡복이타운 버스정류장 02-188 (피쉬고고) ",
      "Latitude": 37.5587251,
      "Longitude": 127.0120213,
      "canType": "재활용",
      "설치위치": "정류소(버스, 택시 등)"
    },
    {
      "Address": "중구 퇴계로 신당역하나은행 마을버스정류장 02-510 ",
      "Latitude": 37.565417,
      "Longitude": 127.021677,
      "canType": "일반쓰레기",
      "설치위치": "정류소(버스, 택시 등)"
    },
    {
      "Address": "중구 퇴계로 신당역하나은행 마을버스정류장 02-510 ",
      "Latitude": 37.565417,
      "Longitude": 127.021677,
      "canType": "재활용",
      "설치위치": "정류소(버스, 택시 등)"
    },
    {
      "Address": "중구 다산로 송도병원앞 버스정류장(02-197) ",
      "Latitude": 37.550061,
      "Longitude": 127.007369,
      "canType": "일반쓰레기",
      "설치위치": "정류소(버스, 택시 등)"
    },
    {
      "Address": "중구 다산로 송도병원앞 버스정류장(02-197) ",
      "Latitude": 37.550061,
      "Longitude": 127.007369,
      "canType": "재활용",
      "설치위치": "정류소(버스, 택시 등)"
    },
    {
      "Address": "중구 다산로 송도병원 건너편 버스정류장(02-198) ",
      "Latitude": 37.5512287,
      "Longitude": 127.0081282,
      "canType": "일반쓰레기",
      "설치위치": "정류소(버스, 택시 등)"
    },
    {
      "Address": "중구 다산로 송도병원 건너편 버스정류장(02-198) ",
      "Latitude": 37.5512287,
      "Longitude": 127.0081282,
      "canType": "재활용",
      "설치위치": "정류소(버스, 택시 등)"
    },
    {
      "Address": "중구 다산로 버티고개남산타운입구 버스정류장(02-237) ",
      "Latitude": 37.5508342,
      "Longitude": 127.0111337,
      "canType": "일반쓰레기",
      "설치위치": "정류소(버스, 택시 등)"
    },
    {
      "Address": "중구 다산로 버티고개남산타운입구 버스정류장(02-237) ",
      "Latitude": 37.5508342,
      "Longitude": 127.0111337,
      "canType": "재활용",
      "설치위치": "정류소(버스, 택시 등)"
    },
    {
      "Address": "중구 퇴계로 중앙시장 정문 건너편 버스정류장(02-182) ",
      "Latitude": 37.5661516,
      "Longitude": 127.0196647,
      "canType": "일반쓰레기",
      "설치위치": "정류소(버스, 택시 등)"
    },
    {
      "Address": "중구 퇴계로 중앙시장 정문 건너편 버스정류장(02-182) ",
      "Latitude": 37.5661516,
      "Longitude": 127.0196647,
      "canType": "재활용",
      "설치위치": "정류소(버스, 택시 등)"
    },
    {
      "Address": "중구 다산로 신당동.청구역 버스정류장(02-190) ",
      "Latitude": 37.5591145,
      "Longitude": 127.0131005,
      "canType": "일반쓰레기",
      "설치위치": "정류소(버스, 택시 등)"
    },
    {
      "Address": "중구 다산로 신당동.청구역 버스정류장(02-190) ",
      "Latitude": 37.5591145,
      "Longitude": 127.0131005,
      "canType": "재활용",
      "설치위치": "정류소(버스, 택시 등)"
    },
    {
      "Address": "중구 다산로 신당동.청구역 버스정류장(02-189) ",
      "Latitude": 37.5591145,
      "Longitude": 127.0131005,
      "canType": "일반쓰레기",
      "설치위치": "정류소(버스, 택시 등)"
    },
    {
      "Address": "중구 다산로 신당동.청구역 버스정류장(02-189) ",
      "Latitude": 37.5591145,
      "Longitude": 127.0131005,
      "canType": "재활용",
      "설치위치": "정류소(버스, 택시 등)"
    },
    {
      "Address": "중구 청계천로 황학동롯데캐슬 버스정류장(02-273) ",
      "Latitude": 37.571596,
      "Longitude": 127.022479,
      "canType": "일반쓰레기",
      "설치위치": "정류소(버스, 택시 등)"
    },
    {
      "Address": "중구 청계천로 황학동롯데캐슬 버스정류장(02-273) ",
      "Latitude": 37.571596,
      "Longitude": 127.022479,
      "canType": "재활용",
      "설치위치": "정류소(버스, 택시 등)"
    },
    {
      "Address": "중구 난계로 황학동주민센터 버스정류장 02-257 ",
      "Latitude": 37.566909,
      "Longitude": 127.02339,
      "canType": "일반쓰레기",
      "설치위치": "정류소(버스, 택시 등)"
    },
    {
      "Address": "중구 난계로 황학동주민센터 버스정류장 02-257 ",
      "Latitude": 37.566909,
      "Longitude": 127.02339,
      "canType": "재활용",
      "설치위치": "정류소(버스, 택시 등)"
    },
    {
      "Address": "중구 퇴계로 신당파인힐하나유보라 버스정류장(02-252) ",
      "Latitude": 37.564947,
      "Longitude": 127.024916,
      "canType": "일반쓰레기",
      "설치위치": "정류소(버스, 택시 등)"
    },
    {
      "Address": "중구 퇴계로 신당파인힐하나유보라 버스정류장(02-252) ",
      "Latitude": 37.564947,
      "Longitude": 127.024916,
      "canType": "재활용",
      "설치위치": "정류소(버스, 택시 등)"
    },
    {
      "Address": "중구 퇴계로 성동고등학교 버스정류장(02-183) ",
      "Latitude": 37.565252,
      "Longitude": 127.022506,
      "canType": "일반쓰레기",
      "설치위치": "정류소(버스, 택시 등)"
    },
    {
      "Address": "중구 퇴계로 성동고등학교 버스정류장(02-183) ",
      "Latitude": 37.565252,
      "Longitude": 127.022506,
      "canType": "재활용",
      "설치위치": "정류소(버스, 택시 등)"
    },
    {
      "Address": "중구 퇴계로 성동고등학교 앞 버스정류장 02-180 ",
      "Latitude": 37.565252,
      "Longitude": 127.022506,
      "canType": "일반쓰레기",
      "설치위치": "정류소(버스, 택시 등)"
    },
    {
      "Address": "중구 퇴계로 성동고등학교 앞 버스정류장 02-180 ",
      "Latitude": 37.565252,
      "Longitude": 127.022506,
      "canType": "재활용",
      "설치위치": "정류소(버스, 택시 등)"
    },
    {
      "Address": "중구 청계천로 청계8가.영도교 버스정류장(02-230) ",
      "Latitude": 37.570719,
      "Longitude": 127.018868,
      "canType": "일반쓰레기",
      "설치위치": "정류소(버스, 택시 등)"
    },
    {
      "Address": "중구 청계천로 청계8가.영도교 버스정류장(02-230) ",
      "Latitude": 37.570719,
      "Longitude": 127.018868,
      "canType": "재활용",
      "설치위치": "정류소(버스, 택시 등)"
    },
    {
      "Address": "중구 다산로 약수역2번출구 버스정류장 02-191 ",
      "Latitude": 37.554347,
      "Longitude": 127.011001,
      "canType": "일반쓰레기",
      "설치위치": "정류소(버스, 택시 등)"
    },
    {
      "Address": "중구 다산로 약수역2번출구 버스정류장 02-191 ",
      "Latitude": 37.554347,
      "Longitude": 127.011001,
      "canType": "재활용",
      "설치위치": "정류소(버스, 택시 등)"
    },
    {
      "Address": "중구 다산로 약수역 7번출구 버스정류장 02-196 ",
      "Latitude": 37.554347,
      "Longitude": 127.011001,
      "canType": "일반쓰레기",
      "설치위치": "정류소(버스, 택시 등)"
    },
    {
      "Address": "중구 다산로 약수역 7번출구 버스정류장 02-196 ",
      "Latitude": 37.554347,
      "Longitude": 127.011001,
      "canType": "재활용",
      "설치위치": "정류소(버스, 택시 등)"
    },
    {
      "Address": "중구 다산로 약수역8번출구 버스정류장 02-195 ",
      "Latitude": 37.554347,
      "Longitude": 127.011001,
      "canType": "일반쓰레기",
      "설치위치": "정류소(버스, 택시 등)"
    },
    {
      "Address": "중구 다산로 약수역8번출구 버스정류장 02-195 ",
      "Latitude": 37.554347,
      "Longitude": 127.011001,
      "canType": "재활용",
      "설치위치": "정류소(버스, 택시 등)"
    },
    {
      "Address": "용산구 원효로 강변삼성아파트앞 횡단보도 버스정류장(03-299) ",
      "Latitude": 37.534664,
      "Longitude": 126.948307,
      "canType": "일반쓰레기수거용",
      "설치위치": "정류장(버스,택시 등)"
    },
    {
      "Address": "용산구 원효로 원효로4가 현대자동차써비스(원효로3가방면) 버스정류장(03-301) ",
      "Latitude": 37.5325468,
      "Longitude": 126.9507037,
      "canType": "일반쓰레기수거용",
      "설치위치": "정류장(버스,택시 등)"
    },
    {
      "Address": "용산구 원효로 목월공원 앞 ",
      "Latitude": 37.53232,
      "Longitude": 126.9548175,
      "canType": "일반쓰레기수거용",
      "설치위치": "도로(가로)변"
    },
    {
      "Address": "용산구 원효로 원효로 3가 시범아파트 버스정류장(03-146) ",
      "Latitude": 37.5342986,
      "Longitude": 126.9576515,
      "canType": "일반쓰레기수거용",
      "설치위치": "정류장(버스,택시 등)"
    },
    {
      "Address": "용산구 원효로 원효로1가 45  (유닉스빌딩앞 버스정류장(03-140) ",
      "Latitude": 37.5397344,
      "Longitude": 126.9687397,
      "canType": "일반쓰레기수거용",
      "설치위치": "정류장(버스,택시 등)"
    },
    {
      "Address": "용산구 원효로 원효로 3가 우리 이비인후과 앞(원효아파트앞횡단보도) ",
      "Latitude": 37.534955,
      "Longitude": 126.9598889,
      "canType": "일반쓰레기수거용",
      "설치위치": "도로(가로)변"
    },
    {
      "Address": "용산구 원효로 원효로 2가 사거리 열린동물병원앞 ",
      "Latitude": 37.5355938999999,
      "Longitude": 126.9617498,
      "canType": "일반쓰레기수거용",
      "설치위치": "도로(가로)변"
    },
    {
      "Address": "용산구 원효로 (구)용산구청앞 사거리 (우리은행) 횡단보도 ",
      "Latitude": 37.5358858,
      "Longitude": 126.9582998,
      "canType": "일반쓰레기수거용",
      "설치위치": "도로(가로)변"
    },
    {
      "Address": "용산구 원효로 용산경찰서 입구(GS25 편의점앞) ",
      "Latitude": 37.5387099,
      "Longitude": 126.9659183,
      "canType": "일반쓰레기수거용",
      "설치위치": "도로(가로)변"
    },
    {
      "Address": "용산구 원효로 선린인터넷고등학교 입구( CU편의점앞 ) ",
      "Latitude": 37.5427168999999,
      "Longitude": 126.9663628,
      "canType": "일반쓰레기수거용",
      "설치위치": "도로(가로)변"
    },
    {
      "Address": "용산구 원효로 (구)용산구청 보건분소앞 사거리(해오름공인중개사) ",
      "Latitude": 37.5323264,
      "Longitude": 126.9907031,
      "canType": "일반쓰레기수거용",
      "설치위치": "도로(가로)변"
    },
    {
      "Address": "용산구 청파로 소화아동병원앞(택시정류장) ",
      "Latitude": 37.5537029,
      "Longitude": 126.9686375,
      "canType": "일반쓰레기수거용",
      "설치위치": "정류장(버스,택시 등)"
    },
    {
      "Address": "용산구 청파로 청파동(서계동방면) 버스정류장(03-126) ",
      "Latitude": 37.5521664,
      "Longitude": 126.9668013,
      "canType": "일반쓰레기수거용",
      "설치위치": "정류장(버스,택시 등)"
    },
    {
      "Address": "용산구 청파로 숙대입구역,청파동주민센터(세운할인마트앞)버스정류장(13-129) ",
      "Latitude": 37.098914,
      "Longitude": 126.902725,
      "canType": "일반쓰레기수거용",
      "설치위치": "정류장(버스,택시 등)"
    },
    {
      "Address": "용산구 청파로 숙대입구역• 청파동주민센터버스정류장(03-128) ",
      "Latitude": 37.545517,
      "Longitude": 126.970255,
      "canType": "일반쓰레기수거용",
      "설치위치": "정류장(버스,택시 등)"
    },
    {
      "Address": "용산구 후암로 갈월동종합사회복지관 택시정류장 ",
      "Latitude": 37.5457492,
      "Longitude": 126.9749059,
      "canType": "일반쓰레기수거용",
      "설치위치": "정류장(버스,택시 등)"
    },
    {
      "Address": "용산구 후암로 용산고등학교 앞 사거리( 구두 수선앞) ",
      "Latitude": 37.546164,
      "Longitude": 126.979458,
      "canType": "일반쓰레기수거용",
      "설치위치": "도로(가로)변"
    },
    {
      "Address": "용산구 후암로 스마일치과의원 건너편 버스정류장(03-203) ",
      "Latitude": 37.5505625,
      "Longitude": 126.9764933,
      "canType": "일반쓰레기수거용",
      "설치위치": "정류장(버스,택시 등)"
    },
    {
      "Address": "용산구 후암로 SC제일은행앞 버스정류장(03-201) ",
      "Latitude": 37.519243,
      "Longitude": 126.864201,
      "canType": "일반쓰레기수거용",
      "설치위치": "정류장(버스,택시 등)"
    },
    {
      "Address": "용산구 후암로 후암시장(삼강의원방면) 버스정류장(03-200) ",
      "Latitude": 37.5505625,
      "Longitude": 126.9764933,
      "canType": "일반쓰레기수거용",
      "설치위치": "정류장(버스,택시 등)"
    },
    {
      "Address": "용산구 후암로 후암삼거리 버스정류장(03-199) 클라라 잡화 ",
      "Latitude": 37.5530087,
      "Longitude": 126.9765256,
      "canType": "일반쓰레기수거용",
      "설치위치": "정류장(버스,택시 등)"
    },
    {
      "Address": "용산구 후암로 진흥빌딩 앞 마을버스정류장 ",
      "Latitude": 37.5483981,
      "Longitude": 126.9775812,
      "canType": "일반쓰레기수거용",
      "설치위치": "정류장(버스,택시 등)"
    },
    {
      "Address": "용산구 후암로 진흥빌딩 건너편 그랜드아파트 횡단보도앞 ",
      "Latitude": 37.5483981,
      "Longitude": 126.9775812,
      "canType": "일반쓰레기수거용",
      "설치위치": "도로(가로)변"
    },
    {
      "Address": "용산구 용호로 원효로1가 선린교차로 현수막 거치대옆(남영지하차도입구) ",
      "Latitude": 37.540597,
      "Longitude": 126.971171,
      "canType": "일반쓰레기수거용",
      "설치위치": "도로(가로)변"
    },
    {
      "Address": "용산구 용호로 전자상가관광터미널(신용산역3번출구방면) 버스정류장(03-252,03-558) ",
      "Latitude": 37.52874,
      "Longitude": 126.967182,
      "canType": "일반쓰레기수거용",
      "설치위치": "정류장(버스,택시 등)"
    },
    {
      "Address": "용산구 용호로 용산전자상가 삼구빌딩 하나은행(원효대교북단방면) 버스정류장(03-138) ",
      "Latitude": 37.5336111,
      "Longitude": 126.9641667,
      "canType": "일반쓰레기수거용",
      "설치위치": "정류장(버스,택시 등)"
    },
    {
      "Address": "용산구 백범로 삼각지 고가 등기소 건너편 마을버스정류장(03-552) ",
      "Latitude": 37.53614,
      "Longitude": 126.9716016,
      "canType": "일반쓰레기수거용",
      "설치위치": "정류장(버스,택시 등)"
    },
    {
      "Address": "용산구 백범로 (구)용산구청 보건분소 앞 횡단보도 ",
      "Latitude": 37.538382,
      "Longitude": 126.964769,
      "canType": "일반쓰레기수거용",
      "설치위치": "도로(가로)변"
    },
    {
      "Address": "용산구 백범로 효창공원역 2번출구(효창동물병원) ",
      "Latitude": 37.5392601,
      "Longitude": 126.9618608,
      "canType": "일반쓰레기수거용",
      "설치위치": "지하철역 입구"
    },
    {
      "Address": "용산구 백범로 효창공원역 3번출구(버스정류장03-180) ",
      "Latitude": 37.538723,
      "Longitude": 126.960979,
      "canType": "일반쓰레기수거용",
      "설치위치": "지하철역 입구"
    },
    {
      "Address": "용산구 백범로 푸르지오아파트앞 버스정류장(03-178) ",
      "Latitude": 37.538563,
      "Longitude": 126.9647286,
      "canType": "일반쓰레기수거용",
      "설치위치": "정류장(버스,택시 등)"
    },
    {
      "Address": "용산구 만리재로길 손기정 버스정류장(03-228)(육교밑 사과나무부동산앞) ",
      "Latitude": 37.5533258,
      "Longitude": 126.9654291,
      "canType": "일반쓰레기수거용",
      "설치위치": "정류장(버스,택시 등)"
    },
    {
      "Address": "용산구 이촌로 현대아파트 버스정류장(03-223) ",
      "Latitude": 37.518045,
      "Longitude": 126.980746,
      "canType": "일반쓰레기수거용",
      "설치위치": "정류장(버스,택시 등)"
    },
    {
      "Address": "용산구 이촌로 강촌아파트 버스정류장(03-221) ",
      "Latitude": 37.5192056,
      "Longitude": 126.9770742,
      "canType": "일반쓰레기수거용",
      "설치위치": "정류장(버스,택시 등)"
    },
    {
      "Address": "용산구 이촌로 신용산 초등학교 건너편(이상윤동물병원앞) ",
      "Latitude": 37.5194202,
      "Longitude": 126.9748273,
      "canType": "일반쓰레기수거용",
      "설치위치": "도로(가로)변"
    },
    {
      "Address": "용산구 이촌로 이촌파출소앞 버스정류장(03-217) ",
      "Latitude": 37.5224761,
      "Longitude": 126.9738155,
      "canType": "일반쓰레기수거용",
      "설치위치": "정류장(버스,택시 등)"
    },
    {
      "Address": "용산구 이촌로 동부이촌동 국민은행앞 ",
      "Latitude": 37.520725,
      "Longitude": 126.971818,
      "canType": "일반쓰레기수거용",
      "설치위치": "도로(가로)변"
    },
    {
      "Address": "용산구 이촌로 이촌동두산위브아파트앞 버스정류장(03-215,03-733) ",
      "Latitude": 37.5234406,
      "Longitude": 126.9682735,
      "canType": "일반쓰레기수거용",
      "설치위치": "정류장(버스,택시 등)"
    },
    {
      "Address": "용산구 이촌로 두산위브아파트앞 횡단보도 ",
      "Latitude": 37.5234406,
      "Longitude": 126.9682735,
      "canType": "일반쓰레기수거용",
      "설치위치": "도로(가로)변"
    },
    {
      "Address": "용산구 이촌로 한강맨션앞 버스정류장(이민재 소아청소년과)(03-218) ",
      "Latitude": 37.5178480999999,
      "Longitude": 126.9729615,
      "canType": "일반쓰레기수거용",
      "설치위치": "정류장(버스,택시 등)"
    },
    {
      "Address": "용산구 이촌로 이촌2동 주민센터(이촌2동대림아파트방면) 버스정류장(03-291) ",
      "Latitude": 37.527936,
      "Longitude": 126.954692,
      "canType": "일반쓰레기수거용",
      "설치위치": "정류장(버스,택시 등)"
    },
    {
      "Address": "용산구 이촌로 이촌2동 주민센터(이촌2동부영주유소방면) 버스정류장(03-290) ",
      "Latitude": 37.5300065,
      "Longitude": 126.9544705,
      "canType": "일반쓰레기수거용",
      "설치위치": "정류장(버스,택시 등)"
    },
    {
      "Address": "용산구 이촌로 대림아파트 버스정류장(03-293)(새남터성당입구횡단보도) ",
      "Latitude": 37.524845,
      "Longitude": 126.9552785,
      "canType": "일반쓰레기수거용",
      "설치위치": "정류장(버스,택시 등)"
    },
    {
      "Address": "용산구 이촌로 강변맨션앞 버스정류장(03-295) ",
      "Latitude": 37.5235033,
      "Longitude": 126.9592043,
      "canType": "일반쓰레기수거용",
      "설치위치": "정류장(버스,택시 등)"
    },
    {
      "Address": "용산구 이촌로 동아아파트 건너편 버스정류장(03-294 함흥냉면 앞) ",
      "Latitude": 37.5234406,
      "Longitude": 126.9682735,
      "canType": "일반쓰레기수거용",
      "설치위치": "정류장(버스,택시 등)"
    },
    {
      "Address": "용산구 서빙고로 (구)용산중대병원앞 버스정류장(03-259) ",
      "Latitude": 37.5241357,
      "Longitude": 126.9858464,
      "canType": "일반쓰레기수거용",
      "설치위치": "정류장(버스,택시 등)"
    },
    {
      "Address": "용산구 서빙고로 용산공업고등학교앞 횡단보도 ",
      "Latitude": 37.5243,
      "Longitude": 126.9669218,
      "canType": "일반쓰레기수거용",
      "설치위치": "도로(가로)변"
    },
    {
      "Address": "용산구 서빙고로 이촌역 2번출구 ",
      "Latitude": 37.522379,
      "Longitude": 126.973651,
      "canType": "일반쓰레기수거용",
      "설치위치": "지하철역 입구"
    },
    {
      "Address": "용산구 서빙고로 온누리교회앞 버스정류장(03-728) ",
      "Latitude": 37.5241357,
      "Longitude": 126.9858464,
      "canType": "일반쓰레기수거용",
      "설치위치": "정류장(버스,택시 등)"
    },
    {
      "Address": "용산구 서빙고로 철우아파트 옆 버스정류장(03-261) ",
      "Latitude": 37.5234371,
      "Longitude": 126.969215,
      "canType": "일반쓰레기수거용",
      "설치위치": "정류장(버스,택시 등)"
    },
    {
      "Address": "용산구 서빙고로 국립중앙박물관 정문앞 횡단보도 ",
      "Latitude": 37.5238506,
      "Longitude": 126.9804702,
      "canType": "일반쓰레기수거용",
      "설치위치": "도로(가로)변"
    },
    {
      "Address": "용산구 서빙고로 국립중앙박물관 버스정류장(가족공원쪽)(03-266) ",
      "Latitude": 37.5238506,
      "Longitude": 126.9804702,
      "canType": "일반쓰레기수거용",
      "설치위치": "정류장(버스,택시 등)"
    },
    {
      "Address": "용산구 후암로 후암로11 채가네볼태기앞 ",
      "Latitude": 37.5469189,
      "Longitude": 126.9780061,
      "canType": "일반쓰레기수거용",
      "설치위치": "도로(가로)변"
    },
    {
      "Address": "용산구 후암로 후암시장(우측)입구 횡단보도앞 ",
      "Latitude": 37.5502034,
      "Longitude": 126.9764424,
      "canType": "일반쓰레기수거용",
      "설치위치": "도로(가로)변"
    },
    {
      "Address": "용산구 독서당로 한남시범아파트버스정류장(03-211) ",
      "Latitude": 37.537949,
      "Longitude": 127.012588,
      "canType": "일반쓰레기수거용",
      "설치위치": "정류장(버스,택시 등)"
    },
    {
      "Address": "용산구 청파로 서울역공항철도15번출구,국립극단버스정류장(03-345) ",
      "Latitude": 37.553083,
      "Longitude": 126.968872,
      "canType": "일반쓰레기수거용",
      "설치위치": "정류장(버스,택시 등)"
    },
    {
      "Address": "용산구 한남대로 한남2치안센터옆 공원입구 ",
      "Latitude": 37.5397329,
      "Longitude": 127.0015235,
      "canType": "일반쓰레기수거용",
      "설치위치": "도로(가로)변"
    },
    {
      "Address": "용산구 한남대로 한남오거리(순천향대학방면-북한남삼거리방면) 버스정류장(03-166) ",
      "Latitude": 37.5418438,
      "Longitude": 127.0020512,
      "canType": "일반쓰레기수거용",
      "설치위치": "정류장(버스,택시 등)"
    },
    {
      "Address": "용산구 녹사평대로 한강중학교(반포한강공원방면) 버스정류장(03-156) ",
      "Latitude": 37.5103503,
      "Longitude": 126.9960378,
      "canType": "일반쓰레기수거용",
      "설치위치": "정류장(버스,택시 등)"
    },
    {
      "Address": "용산구 녹사평대로 한강중학교건너편(용산구청방면) 버스정류장(03-155) ",
      "Latitude": 37.5323264,
      "Longitude": 126.9907031,
      "canType": "일반쓰레기수거용",
      "설치위치": "정류장(버스,택시 등)"
    },
    {
      "Address": "용산구 녹사평대로 용산구청,크라운 호텔(한강중학교앞방면) 버스정류장(03-154) ",
      "Latitude": 37.524874,
      "Longitude": 126.992193,
      "canType": "일반쓰레기수거용",
      "설치위치": "정류장(버스,택시 등)"
    },
    {
      "Address": "용산구 녹사평대로 용산구청,크라운 호텔(국군재정관리단방면) 버스정류장(03-153) ",
      "Latitude": 37.537218,
      "Longitude": 126.986935,
      "canType": "일반쓰레기수거용",
      "설치위치": "정류장(버스,택시 등)"
    },
    {
      "Address": "용산구 녹사평대로 국군재정관리단앞(이태원동남산대림아파트,용산동아파트방면) 버스정류장(03-152) ",
      "Latitude": 37.539845,
      "Longitude": 126.987493,
      "canType": "일반쓰레기수거용",
      "설치위치": "정류장(버스,택시 등)"
    },
    {
      "Address": "용산구 녹사평대로 해방촌(용산구청,크라운호텔방면) 버스정류장(03-151) ",
      "Latitude": 37.530335,
      "Longitude": 126.991214,
      "canType": "일반쓰레기수거용",
      "설치위치": "정류장(버스,택시 등)"
    },
    {
      "Address": "용산구 녹사평대로 용암초등학교입구(남산3호터널앞) 버스정류장(03-148) ",
      "Latitude": 37.5502869,
      "Longitude": 126.9856359,
      "canType": "일반쓰레기수거용",
      "설치위치": "정류장(버스,택시 등)"
    },
    {
      "Address": "용산구 이촌로 방태산식당앞(이촌2동주민센터,문화시설보건소셔틀버스정류장) ",
      "Latitude": 37.527936,
      "Longitude": 126.954692,
      "canType": "일반쓰레기수거용",
      "설치위치": "도로(가로)변"
    },
    {
      "Address": "용산구 소월로 남산도서관앞(두텁바위마을표지석앞) 버스정류장(03-168) ",
      "Latitude": 37.5529249999999,
      "Longitude": 126.981414,
      "canType": "일반쓰레기수거용",
      "설치위치": "정류장(버스,택시 등)"
    },
    {
      "Address": "용산구 소월로 남산도서관(백범광장방면) 버스정류장(03-167) ",
      "Latitude": 37.5548418,
      "Longitude": 126.9792475,
      "canType": "일반쓰레기수거용",
      "설치위치": "정류장(버스,택시 등)"
    },
    {
      "Address": "용산구 소월로 후암약수터(보성여중고입구방면) 버스정류장(03-170) ",
      "Latitude": 37.546488,
      "Longitude": 126.985678,
      "canType": "일반쓰레기수거용",
      "설치위치": "정류장(버스,택시 등)"
    },
    {
      "Address": "용산구 소월로 보성여중고입구(후암약수터방면) 버스정류장(03-171) ",
      "Latitude": 37.546488,
      "Longitude": 126.985678,
      "canType": "일반쓰레기수거용",
      "설치위치": "정류장(버스,택시 등)"
    },
    {
      "Address": "용산구 소월로 남산체육관(하얏트호텔방면) 버스정류장(03-174) ",
      "Latitude": 37.540848,
      "Longitude": 126.997341,
      "canType": "일반쓰레기수거용",
      "설치위치": "정류장(버스,택시 등)"
    },
    {
      "Address": "용산구 소월로 하얏트 호텔(남산체육관방면) 버스정류장(03-175)이광희뷰티크건너편 ",
      "Latitude": 37.540848,
      "Longitude": 126.997341,
      "canType": "일반쓰레기수거용",
      "설치위치": "정류장(버스,택시 등)"
    },
    {
      "Address": "용산구 소월로 하얏트 호텔(서울시중부기술교육원,블루스퀘어방면) 버스정류장(03-176) ",
      "Latitude": 37.541258,
      "Longitude": 127.003163,
      "canType": "일반쓰레기수거용",
      "설치위치": "정류장(버스,택시 등)"
    },
    {
      "Address": "용산구 소월로 보성여중고입구(용암초등학교,이태원2동주민센터방면) 버스정류장(용산2가동주민센타올라오는계단끝)(03-172) ",
      "Latitude": 37.544693,
      "Longitude": 126.99067,
      "canType": "일반쓰레기수거용",
      "설치위치": "정류장(버스,택시 등)"
    },
    {
      "Address": "용산구 한강대로 LG유플러스앞 횡단보도(도심) ",
      "Latitude": 37.5379493,
      "Longitude": 126.9697337,
      "canType": "일반쓰레기수거용",
      "설치위치": "도로(가로)변"
    },
    {
      "Address": "용산구 한강대로 한강로 2가 222-5(한강로 블루컷앞) ",
      "Latitude": 37.5273538,
      "Longitude": 126.9665184,
      "canType": "일반쓰레기수거용",
      "설치위치": "도로(가로)변"
    },
    {
      "Address": "용산구 한강대로 한강로 2가 222-5(한강로 블루컷 건너편 용산역방향 횡단보도) ",
      "Latitude": 37.5273538,
      "Longitude": 126.9665184,
      "canType": "일반쓰레기수거용",
      "설치위치": "도로(가로)변"
    },
    {
      "Address": "용산구 한강대로 용산우체국앞( 택시정류장앞 ) ",
      "Latitude": 37.5302891,
      "Longitude": 126.9688881,
      "canType": "일반쓰레기수거용",
      "설치위치": "정류장(버스,택시 등)"
    },
    {
      "Address": "용산구 새창로 신용산역 마을버스정류장(03-561) ",
      "Latitude": 37.5351591,
      "Longitude": 126.9615219,
      "canType": "일반쓰레기수거용",
      "설치위치": "정류장(버스,택시 등)"
    },
    {
      "Address": "용산구 한강대로 KT 용산지점 마을버스정류장(03-564) 횡단보도 ",
      "Latitude": 37.531389,
      "Longitude": 126.97028,
      "canType": "일반쓰레기수거용",
      "설치위치": "도로(가로)변"
    },
    {
      "Address": "용산구 한강대로 KT 앞 중앙버스정류장 횡단보도(피터팬부동산) ",
      "Latitude": 37.5379493,
      "Longitude": 126.9697337,
      "canType": "일반쓰레기수거용",
      "설치위치": "도로(가로)변"
    },
    {
      "Address": "용산구 청파로 숙대입구역 버스정류장(03-229) ",
      "Latitude": 37.545097,
      "Longitude": 126.971987,
      "canType": "일반쓰레기수거용",
      "설치위치": "정류장(버스,택시 등)"
    },
    {
      "Address": "용산구 한강대로 삼각지 안전지대 횡단보도 (LG자이아파트 앞 ) ",
      "Latitude": 37.5350315,
      "Longitude": 126.9734515,
      "canType": "일반쓰레기수거용",
      "설치위치": "도로(가로)변"
    },
    {
      "Address": "용산구 한강대로 아웃백스테이크하우스 남영점앞 ",
      "Latitude": 37.540597,
      "Longitude": 126.971171,
      "canType": "일반쓰레기수거용",
      "설치위치": "도로(가로)변"
    },
    {
      "Address": "용산구 한강대로 신한은행 숙명여대입구역점앞(서울역방면) ",
      "Latitude": 37.5448707,
      "Longitude": 126.9706098,
      "canType": "일반쓰레기수거용",
      "설치위치": "도로(가로)변"
    },
    {
      "Address": "용산구 한강대로 갈월동 갑을빌딩 앞(왕십리뉴타운1구역모델하우스) ",
      "Latitude": 37.5495897,
      "Longitude": 126.9721074,
      "canType": "일반쓰레기수거용",
      "설치위치": "도로(가로)변"
    },
    {
      "Address": "용산구 한강대로 갈월동 숙대입구 지하철역 9번출구앞 ",
      "Latitude": 37.545097,
      "Longitude": 126.971987,
      "canType": "일반쓰레기수거용",
      "설치위치": "지하철역 입구"
    },
    {
      "Address": "용산구 한강대로 숙명여대 중앙버스정류장(롯데리아 앞) ",
      "Latitude": 37.5441762,
      "Longitude": 126.965888,
      "canType": "일반쓰레기수거용",
      "설치위치": "도로(가로)변"
    },
    {
      "Address": "용산구 한강대로 남영역 고려빌딩 앞 (우) ",
      "Latitude": 37.5487313,
      "Longitude": 126.9702208,
      "canType": "일반쓰레기수거용",
      "설치위치": "도로(가로)변"
    },
    {
      "Address": "용산구 한강대로 게이트웨이타워 버스정류장(03-198) 옆 횡단보도 ",
      "Latitude": 37.5534252,
      "Longitude": 126.9734426,
      "canType": "일반쓰레기수거용",
      "설치위치": "정류장(버스,택시 등)"
    },
    {
      "Address": "용산구 한강대로 남영역 마을버스정류장 (03-535) ",
      "Latitude": 37.540597,
      "Longitude": 126.971171,
      "canType": "일반쓰레기수거용",
      "설치위치": "정류장(버스,택시 등)"
    },
    {
      "Address": "용산구 한강대로 남영역 앞 횡단보도 ",
      "Latitude": 37.540597,
      "Longitude": 126.971171,
      "canType": "일반쓰레기수거용",
      "설치위치": "도로(가로)변"
    },
    {
      "Address": "용산구 한강대로 한강로2가 225-6(용산M치과의원 건너편 횡단보도) ",
      "Latitude": 37.5276899,
      "Longitude": 126.9668292,
      "canType": "일반쓰레기수거용",
      "설치위치": "도로(가로)변"
    },
    {
      "Address": "용산구 한강대로 한강로동 베르가모(농협앞) 버스정류장(03-122) ",
      "Latitude": 37.5236996,
      "Longitude": 126.9620277,
      "canType": "일반쓰레기수거용",
      "설치위치": "정류장(버스,택시 등)"
    },
    {
      "Address": "용산구 한강대로 베르가모앞 택시정류장 ",
      "Latitude": 37.5379493,
      "Longitude": 126.9697337,
      "canType": "일반쓰레기수거용",
      "설치위치": "정류장(버스,택시 등)"
    },
    {
      "Address": "용산구 한강대로 용산역앞 횡단보도 건너편 ",
      "Latitude": 37.5262895,
      "Longitude": 126.9652219,
      "canType": "일반쓰레기수거용",
      "설치위치": "도로(가로)변"
    },
    {
      "Address": "용산구 한강대로 신용산지하차도입구 파리바게트 횡단보도앞 ",
      "Latitude": 37.5324959999999,
      "Longitude": 126.963962,
      "canType": "일반쓰레기수거용",
      "설치위치": "도로(가로)변"
    },
    {
      "Address": "용산구 한강대로 용사의집앞 횡단보도(가로판매점앞) ",
      "Latitude": 37.541695,
      "Longitude": 126.9723369,
      "canType": "일반쓰레기수거용",
      "설치위치": "도로(가로)변"
    },
    {
      "Address": "용산구 독서당로 한남역,용산노인종합복지관(한남동 하이페리온방면) 버스정류장(03-285) ",
      "Latitude": 37.527906,
      "Longitude": 127.005491,
      "canType": "일반쓰레기수거용",
      "설치위치": "정류장(버스,택시 등)"
    },
    {
      "Address": "용산구 대사관로 순천향 병원 택시정류장 ",
      "Latitude": 37.533314,
      "Longitude": 127.004661,
      "canType": "일반쓰레기수거용",
      "설치위치": "정류장(버스,택시 등)"
    },
    {
      "Address": "용산구 효창원로 원효로 2동 주민센터 버스정류장(03-304) ",
      "Latitude": 37.5343161,
      "Longitude": 126.9515008,
      "canType": "일반쓰레기수거용",
      "설치위치": "정류장(버스,택시 등)"
    },
    {
      "Address": "용산구 보광로 보광동 신동아아파트(기업은행보광동지점방면) 버스정류장(03-277) ",
      "Latitude": 37.525683,
      "Longitude": 127.001481,
      "canType": "일반쓰레기수거용",
      "설치위치": "정류장(버스,택시 등)"
    },
    {
      "Address": "용산구 소월로 하얏트호텔 정문앞 마을버스정류장(용산03) ",
      "Latitude": 37.5462841,
      "Longitude": 126.9906203,
      "canType": "일반쓰레기수거용",
      "설치위치": "정류장(버스,택시 등)"
    },
    {
      "Address": "용산구 독서당6길 한남동 동원베네스트 사잇길 옆 쉼터 ",
      "Latitude": 37.4849901,
      "Longitude": 127.0269115,
      "canType": "일반쓰레기수거용",
      "설치위치": "도로(가로)변"
    },
    {
      "Address": "용산구 독서당로 한남동(한남시범아파트방면) 버스정류장(03-213)(현대리버티하우스,KEB하나은행앞) ",
      "Latitude": 37.5334838,
      "Longitude": 127.008523,
      "canType": "일반쓰레기수거용",
      "설치위치": "정류장(버스,택시 등)"
    },
    {
      "Address": "용산구 녹사평대로 보금사에서 스시바얼이태원점앞(녹사평산악회앞) ",
      "Latitude": 37.5381496,
      "Longitude": 126.9871083,
      "canType": "일반쓰레기수거용",
      "설치위치": "도로(가로)변"
    },
    {
      "Address": "용산구 녹사평대로 금호타이어한남대리점(시드니씨푸드)앞(경리단입구3호터널방향) ",
      "Latitude": -33.8688197,
      "Longitude": 151.2092955,
      "canType": "일반쓰레기수거용",
      "설치위치": "도로(가로)변"
    },
    {
      "Address": "용산구 이태원로 한강진역 1번출구앞 (용산국제학교입구) ",
      "Latitude": 37.539838,
      "Longitude": 127.001766,
      "canType": "일반쓰레기수거용",
      "설치위치": "지하철역 입구"
    },
    {
      "Address": "용산구 소월로 소월로168번지(고엽제사무실옆) ",
      "Latitude": 37.5476684,
      "Longitude": 126.9842146,
      "canType": "일반쓰레기수거용",
      "설치위치": "도로(가로)변"
    },
    {
      "Address": "용산구 보광로 한국폴리텍1대학 버스정류장(03-281) ",
      "Latitude": 37.53056,
      "Longitude": 126.996483,
      "canType": "일반쓰레기수거용",
      "설치위치": "도로(가로)변"
    },
    {
      "Address": "용산구 한남대로 도이치모터스(BMW) 매장앞 ",
      "Latitude": 37.538676,
      "Longitude": 127.0055206,
      "canType": "일반쓰레기수거용",
      "설치위치": "정류장(버스,택시 등)"
    },
    {
      "Address": "용산구 이태원로 녹사평역 1번출구앞 버스정류장(03-524) ",
      "Latitude": 37.534945,
      "Longitude": 126.9853515,
      "canType": "일반쓰레기수거용",
      "설치위치": "정류장(버스,택시 등)"
    },
    {
      "Address": "용산구 대사관로 순천향 병원 진출로 옆 인도 ",
      "Latitude": 37.533314,
      "Longitude": 127.004661,
      "canType": "일반쓰레기수거용",
      "설치위치": "도로(가로)변"
    },
    {
      "Address": "용산구 대사관로 순천향 병원 진입로 옆 인도 ",
      "Latitude": 37.533314,
      "Longitude": 127.004661,
      "canType": "일반쓰레기수거용",
      "설치위치": "도로(가로)변"
    },
    {
      "Address": "용산구 이촌로 이촌2동부영주유소 건너편 버스정류장(03-288) ",
      "Latitude": 37.5300065,
      "Longitude": 126.9544705,
      "canType": "일반쓰레기수거용",
      "설치위치": "정류장(버스,택시 등)"
    },
    {
      "Address": "용산구 이촌로 이촌1동 충신교회앞 버스정류장(03-216) ",
      "Latitude": 37.521253,
      "Longitude": 126.968326,
      "canType": "일반쓰레기수거용",
      "설치위치": "정류장(버스,택시 등)"
    },
    {
      "Address": "용산구 한강대로 콩나물국밥 시루향기 24시 횡단보도앞 ",
      "Latitude": 37.5316355,
      "Longitude": 126.9699202,
      "canType": "일반쓰레기수거용",
      "설치위치": "도로(가로)변"
    },
    {
      "Address": "용산구 청파로 청파로 250(남영역03-230버스정류장옆)앞 횡단보도 ",
      "Latitude": 37.5426053,
      "Longitude": 126.9710232,
      "canType": "일반쓰레기수거용",
      "설치위치": "도로(가로)변"
    },
    {
      "Address": "용산구 소월로 소월로168번지(대한민국고엽제전우회앞) ",
      "Latitude": 37.5476684,
      "Longitude": 126.9842146,
      "canType": "일반쓰레기수거용",
      "설치위치": "도로(가로)변"
    },
    {
      "Address": "용산구 소월로 하얏트호텔 정문앞 마을버스정류장(용산03) ",
      "Latitude": 37.5462841,
      "Longitude": 126.9906203,
      "canType": "일반쓰레기수거용",
      "설치위치": "정류장(버스,택시 등)"
    },
    {
      "Address": "용산구 이태원로 녹사평역 3번 출구 앞( 직진2~3미터횡단보도앞 ) ",
      "Latitude": 37.534945,
      "Longitude": 126.9853515,
      "canType": "일반쓰레기수거용",
      "설치위치": "지하철역 입구"
    },
    {
      "Address": "용산구 이태원로 녹사평역 3번 출구 앞( 직진2~3미터횡단보도앞 ) ",
      "Latitude": 37.534945,
      "Longitude": 126.9853515,
      "canType": "재활용수거용",
      "설치위치": "지하철역 입구"
    },
    {
      "Address": "용산구 이태원로 이태원입구(수지스건너편) 공중화장실앞 ",
      "Latitude": 37.5340548,
      "Longitude": 126.9950167,
      "canType": "일반쓰레기수거용",
      "설치위치": "도로(가로)변"
    },
    {
      "Address": "용산구 이태원로 이태원입구(수지스건너편) 공중화장실앞 ",
      "Latitude": 37.5340548,
      "Longitude": 126.9950167,
      "canType": "일반쓰레기수거용",
      "설치위치": "도로(가로)변"
    },
    {
      "Address": "용산구 이태원로 이태원버스정류장(03-189) 아디다스 OFS점 앞 ",
      "Latitude": 37.534542,
      "Longitude": 126.994596,
      "canType": "일반쓰레기수거용",
      "설치위치": "정류장(버스,택시 등)"
    },
    {
      "Address": "용산구 이태원로 이태원버스정류장(03-189) 아디다스 OFS점 앞 ",
      "Latitude": 37.534542,
      "Longitude": 126.994596,
      "canType": "일반쓰레기수거용",
      "설치위치": "정류장(버스,택시 등)"
    },
    {
      "Address": "용산구 이태원로 이태원버스정류장(03-188) ",
      "Latitude": 37.534542,
      "Longitude": 126.994596,
      "canType": "일반쓰레기수거용",
      "설치위치": "정류장(버스,택시 등)"
    },
    {
      "Address": "용산구 이태원로 이태원버스정류장(03-188) ",
      "Latitude": 37.534542,
      "Longitude": 126.994596,
      "canType": "일반쓰레기수거용",
      "설치위치": "정류장(버스,택시 등)"
    },
    {
      "Address": "용산구 이태원로 국제아케이드건물 앞 횡단보도 ",
      "Latitude": 37.5354891,
      "Longitude": 126.9902791,
      "canType": "일반쓰레기수거용",
      "설치위치": "도로(가로)변"
    },
    {
      "Address": "용산구 이태원로 국제아케이드건물 앞 횡단보도 ",
      "Latitude": 37.5354891,
      "Longitude": 126.9902791,
      "canType": "일반쓰레기수거용",
      "설치위치": "도로(가로)변"
    },
    {
      "Address": "용산구 이태원로 ABC마트(신발가게)앞 ",
      "Latitude": 37.5354891,
      "Longitude": 126.9902791,
      "canType": "일반쓰레기수거용",
      "설치위치": "도로(가로)변"
    },
    {
      "Address": "용산구 이태원로 ABC마트(신발가게)앞 ",
      "Latitude": 37.5354891,
      "Longitude": 126.9902791,
      "canType": "일반쓰레기수거용",
      "설치위치": "도로(가로)변"
    },
    {
      "Address": "용산구 이태원로 미스전콜렉션앞 횡단보도 ",
      "Latitude": 37.5341405,
      "Longitude": 126.9920693,
      "canType": "일반쓰레기수거용",
      "설치위치": "도로(가로)변"
    },
    {
      "Address": "용산구 이태원로 미스전콜렉션앞 횡단보도 ",
      "Latitude": 37.5341405,
      "Longitude": 126.9920693,
      "canType": "일반쓰레기수거용",
      "설치위치": "도로(가로)변"
    },
    {
      "Address": "용산구 이태원로 해밀턴호텔 버스정류장(03-190) ",
      "Latitude": 37.5347906,
      "Longitude": 126.9935937,
      "canType": "일반쓰레기수거용",
      "설치위치": "정류장(버스,택시 등)"
    },
    {
      "Address": "용산구 이태원로 해밀턴호텔 버스정류장(03-190) ",
      "Latitude": 37.5347906,
      "Longitude": 126.9935937,
      "canType": "일반쓰레기수거용",
      "설치위치": "정류장(버스,택시 등)"
    },
    {
      "Address": "용산구 이태원로 이태원역 2번 출구 (해밀턴호텔정문앞횡단보도) ",
      "Latitude": 37.5409694,
      "Longitude": 126.9955009,
      "canType": "일반쓰레기수거용",
      "설치위치": "지하철역 입구"
    },
    {
      "Address": "용산구 이태원로 이태원역 2번 출구 (해밀턴호텔정문앞횡단보도) ",
      "Latitude": 37.5409694,
      "Longitude": 126.9955009,
      "canType": "일반쓰레기수거용",
      "설치위치": "지하철역 입구"
    },
    {
      "Address": "용산구 이태원로 이태원역 3번 출구 (올리브영 횡단보도앞) ",
      "Latitude": 37.5411029,
      "Longitude": 126.9960033,
      "canType": "일반쓰레기수거용",
      "설치위치": "정류장(버스,택시 등)"
    },
    {
      "Address": "용산구 이태원로 이태원역 3번 출구 (올리브영 횡단보도앞) ",
      "Latitude": 37.5411029,
      "Longitude": 126.9960033,
      "canType": "일반쓰레기수거용",
      "설치위치": "정류장(버스,택시 등)"
    },
    {
      "Address": "용산구 이태원로 이태원소방서건너편사거리 뉴욕콜롬비아치과앞 횡단보도 ",
      "Latitude": 37.5385051,
      "Longitude": 126.9925224,
      "canType": "일반쓰레기수거용",
      "설치위치": "도로(가로)변"
    },
    {
      "Address": "용산구 이태원로 이태원소방서건너편사거리 뉴욕콜롬비아치과앞 횡단보도 ",
      "Latitude": 37.5385051,
      "Longitude": 126.9925224,
      "canType": "일반쓰레기수거용",
      "설치위치": "도로(가로)변"
    },
    {
      "Address": "용산구 이태원로 이태원 119 안전센타 버스정류장(03-192) ",
      "Latitude": 37.5346943,
      "Longitude": 126.9928859,
      "canType": "일반쓰레기수거용",
      "설치위치": "정류장(버스,택시 등)"
    },
    {
      "Address": "용산구 이태원로 이태원 119 안전센타 버스정류장(03-192) ",
      "Latitude": 37.5346943,
      "Longitude": 126.9928859,
      "canType": "일반쓰레기수거용",
      "설치위치": "정류장(버스,택시 등)"
    },
    {
      "Address": "용산구 한남대로 제일기획실앞 횡단보도 ",
      "Latitude": 37.538676,
      "Longitude": 127.0055206,
      "canType": "일반쓰레기수거용",
      "설치위치": "도로(가로)변"
    },
    {
      "Address": "용산구 한남대로 제일기획실앞 횡단보도 ",
      "Latitude": 37.538676,
      "Longitude": 127.0055206,
      "canType": "일반쓰레기수거용",
      "설치위치": "도로(가로)변"
    },
    {
      "Address": "용산구 한남대로 시화담그릴(이태원로254(한남동683-130)앞 ",
      "Latitude": 37.5372859,
      "Longitude": 127.0011931,
      "canType": "일반쓰레기수거용",
      "설치위치": "도로(가로)변"
    },
    {
      "Address": "용산구 한남대로 시화담그릴(이태원로254(한남동683-130)앞 ",
      "Latitude": 37.5372859,
      "Longitude": 127.0011931,
      "canType": "일반쓰레기수거용",
      "설치위치": "도로(가로)변"
    },
    {
      "Address": "용산구 한남대로 삼성미술관 리움 택시정류장(폭스바겐건너편) ",
      "Latitude": 37.5378932,
      "Longitude": 126.9993937,
      "canType": "일반쓰레기수거용",
      "설치위치": "정류장(버스,택시 등)"
    },
    {
      "Address": "용산구 한남대로 삼성미술관 리움 택시정류장(폭스바겐건너편) ",
      "Latitude": 37.5378932,
      "Longitude": 126.9993937,
      "canType": "일반쓰레기수거용",
      "설치위치": "정류장(버스,택시 등)"
    },
    {
      "Address": "용산구 녹사평대로 이태원광장 녹사평역방향 횡단보도(좌측) ",
      "Latitude": 37.534945,
      "Longitude": 126.9853515,
      "canType": "일반쓰레기수거용",
      "설치위치": "도로(가로)변"
    },
    {
      "Address": "용산구 녹사평대로 이태원광장 녹사평역방향 횡단보도(좌측) ",
      "Latitude": 37.534945,
      "Longitude": 126.9853515,
      "canType": "일반쓰레기수거용",
      "설치위치": "도로(가로)변"
    },
    {
      "Address": "용산구 녹사평대로 용산구청 셔틀버스 정류장 ",
      "Latitude": 37.5323264,
      "Longitude": 126.9907031,
      "canType": "일반쓰레기수거용",
      "설치위치": "도로(가로)변"
    },
    {
      "Address": "용산구 녹사평대로 용산구청 셔틀버스 정류장 ",
      "Latitude": 37.5323264,
      "Longitude": 126.9907031,
      "canType": "일반쓰레기수거용",
      "설치위치": "도로(가로)변"
    },
    {
      "Address": "용산구 보광로 보광동입구(한국폴리텍1대학방면) 버스정류장(03-283) ",
      "Latitude": 37.53056,
      "Longitude": 126.996483,
      "canType": "일반쓰레기수거용",
      "설치위치": "정류장(버스,택시 등)"
    },
    {
      "Address": "용산구 보광로 보광동입구(한국폴리텍1대학방면) 버스정류장(03-283) ",
      "Latitude": 37.53056,
      "Longitude": 126.996483,
      "canType": "일반쓰레기수거용",
      "설치위치": "정류장(버스,택시 등)"
    },
    {
      "Address": "용산구 한남대로 한강진역 블루스퀘어 버스정류장(03-197) ",
      "Latitude": 37.540834,
      "Longitude": 127.002004,
      "canType": "일반쓰레기수거용",
      "설치위치": "정류장(버스,택시 등)"
    },
    {
      "Address": "용산구 한남대로 한강진역 블루스퀘어 버스정류장(03-197) ",
      "Latitude": 37.540834,
      "Longitude": 127.002004,
      "canType": "재활용수거용",
      "설치위치": "정류장(버스,택시 등)"
    },
    {
      "Address": "용산구 한남대로 순천향대학병원(블루스퀘어방면) 버스정류장(03-162) ",
      "Latitude": 37.5408808,
      "Longitude": 127.0024461,
      "canType": "일반쓰레기수거용",
      "설치위치": "정류장(버스,택시 등)"
    },
    {
      "Address": "용산구 한남대로 순천향대학병원(블루스퀘어방면) 버스정류장(03-162) ",
      "Latitude": 37.5408808,
      "Longitude": 127.0024461,
      "canType": "일반쓰레기수거용",
      "설치위치": "정류장(버스,택시 등)"
    },
    {
      "Address": "용산구 한남대로 순천향대학병원(서초IC방면) 버스정류장(03-164) ",
      "Latitude": 37.4833792,
      "Longitude": 127.0260783,
      "canType": "일반쓰레기수거용",
      "설치위치": "정류장(버스,택시 등)"
    },
    {
      "Address": "용산구 한남대로 순천향대학병원(서초IC방면) 버스정류장(03-164) ",
      "Latitude": 37.4833792,
      "Longitude": 127.0260783,
      "canType": "재활용수거용",
      "설치위치": "정류장(버스,택시 등)"
    },
    {
      "Address": "용산구 한남대로 순천향대학병원(서초IC방면) 버스정류장(03-164) ",
      "Latitude": 37.4833792,
      "Longitude": 127.0260783,
      "canType": "일반쓰레기수거용",
      "설치위치": "정류장(버스,택시 등)"
    },
    {
      "Address": "용산구 한남대로 순천향대학병원(서초IC방면) 버스정류장(03-164) ",
      "Latitude": 37.4833792,
      "Longitude": 127.0260783,
      "canType": "재활용수거용",
      "설치위치": "정류장(버스,택시 등)"
    },
    {
      "Address": "용산구 한남대로 순천향대학병원,한남오거리(신사역방면) 버스정류장(03-165) ",
      "Latitude": 37.535486,
      "Longitude": 127.00573,
      "canType": "일반쓰레기수거용",
      "설치위치": "정류장(버스,택시 등)"
    },
    {
      "Address": "용산구 한남대로 순천향대학병원,한남오거리(신사역방면) 버스정류장(03-165) ",
      "Latitude": 37.535486,
      "Longitude": 127.00573,
      "canType": "재활용수거용",
      "설치위치": "정류장(버스,택시 등)"
    },
    {
      "Address": "용산구 한남대로 한남오거리 하나은행앞 횡단보도 ",
      "Latitude": 37.5333727,
      "Longitude": 127.0076342,
      "canType": "일반쓰레기수거용",
      "설치위치": "도로(가로)변"
    },
    {
      "Address": "용산구 한남대로 한남오거리 하나은행앞 횡단보도 ",
      "Latitude": 37.5333727,
      "Longitude": 127.0076342,
      "canType": "재활용수거용",
      "설치위치": "도로(가로)변"
    },
    {
      "Address": "용산구 한강대로 한강대교북단(신용산방면) 중앙버스정류장(도심,03-001)) ",
      "Latitude": 37.525269,
      "Longitude": 126.963881,
      "canType": "일반쓰레기수거용",
      "설치위치": "버스중앙차로내 휴지통"
    },
    {
      "Address": "용산구 한강대로 한강대교북단(노들섬방면) 중앙버스정류장(외곽,03-002) ",
      "Latitude": 37.525269,
      "Longitude": 126.963881,
      "canType": "일반쓰레기수거용",
      "설치위치": "버스중앙차로내 휴지통"
    },
    {
      "Address": "용산구 한강대로 신용산역(KT용산지사방면) 중앙버스정류장(도심, 03-003) ",
      "Latitude": 37.5316135,
      "Longitude": 126.9702145,
      "canType": "일반쓰레기수거용",
      "설치위치": "버스중앙차로내 휴지통"
    },
    {
      "Address": "용산구 한강대로 신용산역(한강대교북단방면) 중앙버스정류장(외곽,03-004) ",
      "Latitude": 37.525269,
      "Longitude": 126.963881,
      "canType": "일반쓰레기수거용",
      "설치위치": "버스중앙차로내 휴지통"
    },
    {
      "Address": "용산구 한강대로 신용산역(한강대교북단방면) 중앙버스정류장(외곽,03-004) ",
      "Latitude": 37.525269,
      "Longitude": 126.963881,
      "canType": "일반쓰레기수거용",
      "설치위치": "버스중앙차로내 휴지통"
    },
    {
      "Address": "용산구 한강대로 삼각지(숙대입구방면) 중앙버스정류장(도심,03-007) ",
      "Latitude": 37.5350315,
      "Longitude": 126.9734515,
      "canType": "일반쓰레기수거용",
      "설치위치": "버스중앙차로내 휴지통"
    },
    {
      "Address": "용산구 한강대로 삼각지(KT용산지사방면) 중앙버스정류장(외곽,03-008) ",
      "Latitude": 37.5316135,
      "Longitude": 126.9702145,
      "canType": "일반쓰레기수거용",
      "설치위치": "버스중앙차로내 휴지통"
    },
    {
      "Address": "용산구 한강대로 삼각지(KT용산지사방면) 중앙버스정류장(외곽,03-008) ",
      "Latitude": 37.5316135,
      "Longitude": 126.9702145,
      "canType": "일반쓰레기수거용",
      "설치위치": "버스중앙차로내 휴지통"
    },
    {
      "Address": "용산구 한강대로 삼각지(KT용산지사방면) 중앙버스정류장(외곽,03-008) ",
      "Latitude": 37.5316135,
      "Longitude": 126.9702145,
      "canType": "일반쓰레기수거용",
      "설치위치": "버스중앙차로내 휴지통"
    },
    {
      "Address": "용산구 한강대로 숙명여대(갈월동방면) 중앙버스정류장(도심,03-009) ",
      "Latitude": 37.546475,
      "Longitude": 126.9646916,
      "canType": "일반쓰레기수거용",
      "설치위치": "버스중앙차로내 휴지통"
    },
    {
      "Address": "용산구 한강대로 숙명여대(삼각지역방면) 중앙버스정류장(외곽,03-010) ",
      "Latitude": 37.5350315,
      "Longitude": 126.9734515,
      "canType": "일반쓰레기수거용",
      "설치위치": "버스중앙차로내 휴지통"
    },
    {
      "Address": "용산구 한강대로 갈월동(서울역버스환승센터방면) 중앙버스정류장 (도심,03-011) ",
      "Latitude": 37.5552915,
      "Longitude": 126.9726675,
      "canType": "일반쓰레기수거용",
      "설치위치": "버스중앙차로내 휴지통"
    },
    {
      "Address": "용산구 한강대로 갈월동(숙대입구방면) 중앙버스정류장 (외곽,03-012) ",
      "Latitude": 37.545097,
      "Longitude": 126.971987,
      "canType": "일반쓰레기수거용",
      "설치위치": "버스중앙차로내 휴지통"
    },
    {
      "Address": "용산구 녹사평대로 이태원2동 용산한신아파트앞(해방촌방면) 버스정류장(03-150) ",
      "Latitude": 37.539878,
      "Longitude": 126.987153,
      "canType": "일반쓰레기수거용",
      "설치위치": "정류장(버스,택시 등)"
    },
    {
      "Address": "용산구 녹사평대로 이태원2동 용산한신아파트앞(해방촌방면) 버스정류장(03-150) ",
      "Latitude": 37.539878,
      "Longitude": 126.987153,
      "canType": "일반쓰레기수거용",
      "설치위치": "정류장(버스,택시 등)"
    },